station_id,station_name,available_mechanical_bikes,available_electric_bikes,available_empty_docks,latitude,longitude,date
213688169,Benjamin Godard - Victor Hugo,3,1,31,48.865983,2.275725,2021-05-24 13:33:08
99950133,André Mazet - Saint-André des Arts,45,1,9,48.85375581057431,2.3390958085656166,2021-05-24 13:34:23
516709288,Charonne - Robert et Sonia Delauney,1,3,16,48.85590755596891,2.3925706744194035,2021-05-24 13:31:30
36255,Toudouze - Clauzel,2,0,18,48.87929591733507,2.3373600840568547,2021-05-24 13:30:02
37815204,Mairie du 12ème,16,0,14,48.84085531176338,2.3875549435615544,2021-05-24 13:34:11
100769544,Harpe - Saint-Germain,20,1,25,48.85151881501689,2.343670316040516,2021-05-24 13:34:56
85002689,Jourdan - Stade Charléty,1,2,56,48.81942833336948,2.343335375189781,2021-05-24 13:31:14
54000559,Jouffroy d'Abbans - Wagram,1,5,33,48.881973298351625,2.301132157444954,2021-05-24 13:31:50
85043758,Guersant - Gouvion-Saint-Cyr,0,4,20,48.88287775178599,2.287667370814871,2021-05-24 13:30:26
123095125,Alibert - Jemmapes,8,5,43,48.8710440519842,2.366104461987773,2021-05-24 13:36:12
251039991,Cassini - Denfert-Rochereau,3,0,22,48.83752583906732,2.336035408079624,2021-05-24 13:30:35
37874517,Saint-Sulpice,3,4,14,48.85165383178419,2.3308077827095985,2021-05-24 13:27:46
66491398,Le Brun - Gobelins,2,4,42,48.835092787823875,2.353468135133752,2021-05-24 13:35:54
210403080,Lacépède - Monge,3,0,20,48.84389286531899,2.3519663885235786,2021-05-24 13:31:01
210561800,Saint-Romain - Cherche-Midi,4,1,12,48.84708159081946,2.321374788880348,2021-05-24 13:33:14
209063434,André Karman - République,5,0,25,48.91039875761846,2.3851355910301213,2021-05-24 13:34:14
94555589,Pierre et Marie Curie - Maurice Thorez,8,1,18,48.81580226360801,2.376804985105991,2021-05-24 13:35:14
244498842,Bois de Vincennes - Gare,33,8,7,48.836022242886884,2.4708339950830287,2021-05-24 13:34:58
43195240,Silly - Galliéni,6,0,19,48.835583838705936,2.2325500845909123,2021-05-24 13:30:26
210405211,Beaux-Arts - Bonaparte,8,9,4,48.856451985395786,2.334851883351803,2021-05-24 13:29:16
501862076,Place Nelson Mandela ,0,1,21,48.862090937689715,2.196576297283173,2021-05-24 13:32:54
207633746,Grande Armée - Brunel,3,4,51,48.876116,2.288124,2021-05-24 13:36:09
210566542,Square Boucicaut,15,16,29,48.851296433665276,2.325061820447445,2021-05-24 13:34:35
437597018,Invalides - Duroc,4,0,25,48.8477924732952,2.3161920905113225,2021-05-24 13:35:03
210565680,Vaneau - Sèvres,6,5,24,48.84856323305935,2.3204218259345537,2021-05-24 13:34:43
210397939,Thouin - Cardinal Lemoine,1,3,13,48.84504716661511,2.3494647851273465,2021-05-24 13:36:09
82405965,Froment - Bréguet,19,6,18,48.8570414504784,2.37289470306807,2021-05-24 13:35:44
213682736,Morillons - Dantzig,10,0,42,48.83310149953933,2.299380004405976,2021-05-24 13:35:31
80101533,Chazelles - Courcelles ,4,1,29,48.879406604954,2.3034455627202988,2021-05-24 13:27:33
54000581,Croulebarde - Corvisart,13,1,20,48.830981659316855,2.3481646925210953,2021-05-24 13:33:01
599135701,Ramponeau - Belleville,10,2,32,48.871031137596006,2.3790568521139748,2021-05-24 13:32:13
13105968,Le Brix et Mesmin - Jourdan,7,0,14,48.82234096593411,2.327861653302471,2021-05-24 13:33:51
653208733,Romainville - Vaillant-Couturier,1,2,35,48.86785,2.446748,2021-05-24 13:34:30
907054879,Liberté - Vert-de-Maisons,8,4,7,48.79014780960843,2.43286281824112,2021-05-24 13:35:05
128986726,Boétie - Ponthieu,3,8,22,48.871417284354834,2.307678759098053,2021-05-24 13:31:06
129094535,Porte de Saint-Ouen - Bessières,4,0,36,48.89792240854517,2.32851451022192,2021-05-24 13:33:56
27415224,Bir Hakeim,20,6,5,48.853844054333514,2.289705348222022,2021-05-24 13:35:44
54000612,Cambrai - Benjamin Constant,3,4,36,48.89594736851349,2.381133802246315,2021-05-24 13:32:13
88230992,De Toqueville - Terrasse,3,2,24,48.882428,2.314002,2021-05-24 13:34:02
27415302,Michel-Ange - Parent de Rosan,2,1,23,48.840579923690115,2.2584119439125065,2021-05-24 13:30:10
102747146,Lagny - Victor Basch,10,1,12,48.84884147189881,2.426325418925233,2021-05-24 13:35:18
2515403527,Saint-Cloud - Hippodrome,6,2,19,48.85772148887421,2.2549109905958176,2021-05-24 13:27:37
653132534,Louis Lejeune - Barbès,2,1,22,48.81807418981508,2.3267009854316716,2021-05-24 13:30:50
506455295,Général Martial Valin - Pont du Garigliano,0,0,14,48.83823094269141,2.270506024360657,2021-05-24 13:34:26
1057149522,Rond-point du Dr Albert Schweitzer,5,2,14,48.78980918988166,2.3143940046429634,2021-05-24 13:34:40
210567545,Raspail - Varenne,8,3,7,48.85314781654488,2.3263905197381973,2021-05-24 13:35:54
653197324,Théâtre des Amandiers - Palais des sports,3,4,16,48.89264852683893,2.2136941552162175,2021-05-24 13:30:51
210408693,Vaugirard - Monsieur le Prince,9,3,14,48.848951441614176,2.3411329463124275,2021-05-24 13:29:47
42950839,Serrurier,0,0,16,48.8804934032465,2.39806417375803,2021-05-24 13:32:10
85123644,Pyrénées - Ménilmontant,0,0,25,48.8693268535238,2.395084574818611,2021-05-24 13:34:03
499303158,Jules Guesde - Pont du Port à l'Anglais,15,1,14,48.79628807093802,2.417212128639221,2021-05-24 13:32:36
2515085147,Italie - Tolbiac,7,3,11,48.82557229464416,2.3576171323657036,2021-05-24 13:29:34
27414512,Caire - Dussoubs,19,7,13,48.86785342111862,2.349364310503006,2021-05-24 13:34:42
210580039,Tour d'Auvergne - Rodier,1,0,15,48.879161,2.343698,2021-05-24 13:33:09
49474389,Artois - Berri,2,2,17,48.87393521240818,2.3064258322119713,2021-05-24 13:36:11
128940135,Marceau - Chaillot,0,3,18,48.86883394989261,2.2989967837929726,2021-05-24 13:26:38
35149611,Liard - Amiral Mouchez,1,3,9,48.8214169,2.342167,2021-05-24 13:29:53
210570888,Las Cases - Bourgogne,6,3,13,48.85909110474066,2.3185685276985173,2021-05-24 13:28:11
129107656,Félix Ziem - Armand Gauthier,2,1,22,48.88949630486821,2.333393658804396,2021-05-24 13:31:45
129088667,Jonquière - Docteur Paul Brousse,3,4,33,48.894799816683985,2.318705212173216,2021-05-24 13:26:35
214114469,Gare de Nogent-le-Perreux,24,6,2,48.83842553348809,2.493693307042122,2021-05-24 13:34:46
1057228658,Youri Gagarine - Karl Marx,1,0,20,48.78448485079149,2.35908430069685,2021-05-24 13:27:07
230873471,Octave Feuillet - Albéric Magnard,1,3,16,48.86106902949534,2.2730283066630363,2021-05-24 13:31:42
507934805,Ney - Porte de Clignancourt ,3,5,16,48.8978867,2.3458001,2021-05-24 13:30:03
205047993,Edgar Quinet - Raspail,0,1,45,48.83940266673835,2.32971478253603,2021-05-24 13:29:55
7254,Gay Lussac - Saint-Jacques,6,1,16,48.844730256132095,2.341923944866407,2021-05-24 13:34:38
129164969,Place Jean-Spire-Lemaître,13,2,35,48.8468428626593,2.452062070369721,2021-05-24 13:35:31
128989986,Place Georges Guillaumin,3,1,24,48.874750203956566,2.301771435325988,2021-05-24 13:34:56
129004826,Bellefond - Poissonnière,3,2,12,48.87759897050706,2.348463758826256,2021-05-24 13:35:11
518825709,Jean Oestreicher - Porte de Champerret,3,3,13,48.88655580065981,2.288640439510346,2021-05-24 13:33:35
128930462,Square Louis XVI,7,7,14,48.87320440102894,2.323658830743138,2021-05-24 13:32:15
911767210,Alexandre Parodi - Quai de Valmy,0,0,23,48.87935941942529,2.366596162319184,2021-05-24 13:30:55
54000565,Granges aux Belles,0,4,19,48.8761373390584,2.3680844979417,2021-05-24 13:35:51
1057296253,Regnault - Patay,37,5,20,48.82435782216384,2.377065159380436,2021-05-24 13:36:03
210581084,Gare Saint-Lazare - Place de Budapest,5,2,35,48.877753,2.327339,2021-05-24 13:34:04
210586093,Dunkerque - Rocroy,14,0,10,48.880726,2.351464,2021-05-24 13:30:05
102311820,Clignancourt - Ordener,0,5,29,48.891457726153774,2.348636478060487,2021-05-24 13:34:35
128887067,Ségur - d'Estrées,2,1,16,48.85141997898257,2.3097044974565506,2021-05-24 13:28:01
210574471,Abbeville - Faubourg Poissonnière,1,0,13,48.879223,2.349147,2021-05-24 13:34:10
72765603,Boulangers - Cardinal Lemoine,4,1,13,48.8462904,2.3521495,2021-05-24 13:35:30
210582921,Boudreau - Auber,6,2,6,48.87219,2.329423,2021-05-24 13:33:55
55927887,Gabriel Lamé,28,1,6,48.8351212784276,2.385534569621086,2021-05-24 13:35:57
369644630,Gare de l'Est - Faubourg-Saint-Martin,8,0,23,48.87564264747718,2.3594588041305546,2021-05-24 13:35:51
43255030,Pereire - Ternes,8,0,40,48.87973954830735,2.288012132048607,2021-05-24 13:31:51
129025451,Douai - Bruxelles,0,1,25,48.88320784122797,2.3308449949028507,2021-05-24 13:33:47
128920403,Gare Saint-Lazare - Isly,7,2,18,48.874777677621296,2.326515804784655,2021-05-24 13:33:14
323616530,Quai de l'Horloge - Pont Neuf,3,1,13,48.857058739111096,2.341798283943937,2021-05-24 13:35:14
208795867,Ambroise Rendu - Porte Brunet,2,2,13,48.883667,2.395733,2021-05-24 13:34:51
1062192012,Gare Rosny-Bois-Perrier,7,10,18,48.88115023337061,2.480436824262142,2021-05-24 13:36:10
6296,Institut de France,1,2,14,48.85761567856468,2.335831353037739,2021-05-24 13:32:11
521393180,Porte Pouchet-Bessières,3,1,17,48.8978765,2.3230632,2021-05-24 13:35:59
576188379,Vigée-Lebrun - Anselme Payen,0,2,21,48.838683941628375,2.3110422492027287,2021-05-24 13:30:16
128915891,Octave Gréard - Tour Eiffel,21,3,6,48.856502977695634,2.293178754328878,2021-05-24 13:33:14
82567101,Château - République,1,5,20,48.8629238005955,2.415503561496735,2021-05-24 13:34:39
129021753,Moncey - Blanche,0,1,15,48.88006587474148,2.3310810327529907,2021-05-24 13:30:15
457813746,Henri Barbusse - Stalingrad,1,1,14,48.814183748660554,2.2872862592339516,2021-05-24 13:30:50
35642049,Jemmapes - Ecluses Saint-Martin ,0,0,15,48.87748519186726,2.3660067468881607,2021-05-24 13:31:47
50191171,Thionville - Ourcq,0,5,18,48.88917613743794,2.3833653330802917,2021-05-24 13:30:13
102290754,Mairie du 17ème,5,4,14,48.88416184871573,2.322079431103719,2021-05-24 13:35:43
3906153622,Argenteuil - Voltaire,4,1,10,48.91864865955558,2.2814112156629562,2021-05-24 13:32:44
129087587,Legendre - Clichy,7,1,32,48.88896161855884,2.322528975094376,2021-05-24 13:33:31
213693511,Quai de la Seine,3,5,15,48.884492238407525,2.3703941702842717,2021-05-24 13:33:37
82379648,Lisbonne - Monceau,4,3,25,48.87745567681383,2.309694221419506,2021-05-24 13:31:41
95845524,Cité Riverin - Château d'Eau ,1,1,16,48.870702423554306,2.358739863900845,2021-05-24 13:36:08
230877798,Chartres - La Charbonnière,2,2,26,48.8847601,2.3534657,2021-05-24 13:34:18
303695607,Pont-Neuf - Quai du Louvre,0,0,30,48.8582958982873,2.3423714563250546,2021-01-22 22:50:04
66491397,Gare de Lyon - Place Louis Armand,7,5,47,48.8455150897939,2.3726498446286,2021-05-24 13:33:42
2515995748,Pesaro - Préfecture,3,6,13,48.89577046284005,2.223908342421055,2021-05-24 13:34:19
129014600,Rossini - Laffitte,7,6,18,48.87334627510507,2.337980867701675,2021-05-24 13:32:27
27363162,Ranelagh - Mozart,4,0,19,48.8554439,2.2704418,2021-05-24 13:35:51
128882438,Institut du Monde Arabe - Saint-Germain,13,3,23,48.84906329950134,2.3558086529374123,2021-05-24 13:35:46
210740080,Gare du Nord - Hôpital Lariboisière,3,1,45,48.881949,2.352339,2021-05-24 13:31:50
102324803,Pyrénées - Emmery,1,1,37,48.872010281270974,2.392039597034455,2021-05-24 13:31:04
80419347,Lagny - Auguste Blanqui,0,4,21,48.84922568052601,2.4218603968620305,2021-05-24 13:31:54
54000569,Saint-Ambroise - Parmentier,10,6,21,48.86214784454763,2.3772348091006275,2021-05-24 13:29:11
336511521,Place de Rhin et Danube,3,2,10,48.88192765861766,2.392586767673493,2021-05-24 13:31:17
129043651,Roquette - Thiéré,12,1,10,48.85507930579506,2.3733686318721463,2021-05-24 13:35:32
82562556,Exelmans - Versailles,17,3,28,48.84097491091973,2.264390252530575,2021-05-24 13:35:58
129048000,Saint-Maur - Roquette,24,3,18,48.858688774062955,2.383553994571467,2021-05-24 13:34:28
1062250686,11 Novembre 1918 - 8 Mai 1945,2,5,29,48.80889533774377,2.5382421165704727,2021-05-24 13:33:10
261987383,Place Du Général De Gaulle,0,3,22,48.8687591,2.4329931,2021-05-24 13:33:22
813544903,Amelot - Saint-Sébastien,10,3,15,48.86114216276092,2.367799618107727,2021-05-24 13:34:34
126050442,Pereire - Rennequin,1,0,22,48.88364782887555,2.2952447086572647,2021-05-24 13:34:32
27363489,Claude Decaen - Cannebière,0,0,27,48.83761417037952,2.397253782195704,2021-05-24 13:34:45
39296638,Berri - Haussmann,9,7,19,48.874746047357135,2.3082953318953514,2021-05-24 13:32:51
101763163,Desaix - Edgar Faure,4,1,7,48.852804604940296,2.293077029857222,2021-05-24 13:30:27
205938683,Delphine Seyrig - Général Leclerc,4,4,42,48.893923963057865,2.39790290594101,2021-05-24 13:35:07
210399835,Panthéon - Valette,2,4,33,48.84702057165222,2.3464982619671075,2021-05-24 13:31:14
1057324291,Cimetière de Montrouge,0,1,57,48.822009,2.322188699,2021-05-24 13:30:02
314829539,Charles de Gaulle - Beauté,8,5,36,48.83649602312711,2.479562651149885,2021-05-24 13:34:18
653133605,Gare RER - Canadiens,27,1,16,48.81995307955795,2.464176752459464,2021-05-24 13:33:28
3906094706,Redoute - Les Courtilles,7,6,19,48.92986719451888,2.283669635653496,2021-05-24 13:33:26
27414578,Notre-Dame-des-Champs - Stanislas,1,2,16,48.84479928858768,2.329337755887181,2021-05-24 13:35:19
80216231,Belidor - Gouvion-Saint-Cyr,0,0,24,48.88022154052015,2.2854680567979813,2021-04-24 23:43:27
508042092,Pyramide - Ecole du Breuil ,4,4,26,48.82237977153955,2.4586871266365056,2021-05-24 13:31:55
42603855,Liège - Moscou,0,3,14,48.8795431,2.3264628,2021-05-24 13:29:00
818302209,Mairie de Montreuil,2,7,41,48.86131452758348,2.440614402294159,2021-05-24 13:26:26
13718041,Square Simon Bolivar,0,1,19,48.8750898883217,2.3826304078102116,2021-05-24 13:35:58
265464297,Schoelcher - Raspail,7,2,39,48.83681733526843,2.3312794080411474,2021-05-24 13:36:06
1057392676,Rouget de Lisle,20,6,4,48.764615483395254,2.4071189761161804,2021-05-24 13:34:08
102309973,Cimetière de Montmartre,2,2,39,48.886472466141925,2.3328901827335358,2021-05-24 13:34:59
532054446,Richard Lenoir - Republique,4,5,49,48.8667175,2.3692541,2021-05-24 13:35:45
129034587,Récollets - Square Villemin,1,0,14,48.875034655883944,2.359801238597928,2021-05-24 13:32:24
586539770,Marne - Germain Dardan,0,8,11,48.81154270401601,2.303070724010468,2021-05-24 13:33:06
3906335682,Roger Salengro - Fontainebleau,10,2,12,48.814548697324845,2.36116636544466,2021-05-24 13:36:12
583539396,Anatole France - President Roosevelt,4,5,18,48.9155156,2.3814103,2021-05-24 13:29:44
101753100,Henry Farman,4,0,12,48.83372430280548,2.2713854536414146,2021-05-24 13:34:32
27415466,Jourdain - Place des Grandes Rigoles,1,1,20,48.87403113727167,2.38959476351738,2021-05-24 13:36:03
88140066,Rocher - Laborde,11,4,50,48.87590240712654,2.322616316378116,2021-05-24 13:29:07
66491385,Fontenay - Libération,2,1,18,48.84780306364685,2.445141971111298,2021-05-24 13:36:07
52393,Grands Moulins de Pantin,5,3,40,48.89738369720229,2.3959985375404362,2021-05-24 13:32:45
596813170,Cimetière,0,1,13,48.84706173362218,2.4787822365760808,2021-05-24 13:34:45
209057581,Gabriel Péri - Francisco Ferrer,1,2,17,48.88633710236977,2.407338917255402,2021-05-24 13:33:16
66491389,Place de la Reine Astrid,17,9,31,48.86492098253841,2.302549182385926,2021-05-24 13:35:23
596872103,Lucie Aubrac - Fort,2,7,21,48.818144834008976,2.271184623241425,2021-05-24 13:34:34
81081358,Pajol - Place Herbert,2,3,34,48.8927825,2.3635598,2021-05-24 13:34:46
210749865,Port-Royal - Hôpital du Val-de-Grâce,0,0,18,48.8376682728114,2.344813834660711,2021-05-24 13:33:58
535500589,Hôpital Européen Georges Pompidou ,25,9,29,48.83769531916335,2.275374233722687,2021-05-24 13:32:53
597245295,Concorde - Stalingrad,2,3,30,48.7985844,2.3821302,2021-05-24 13:32:42
583171360,Jean Marin Naudin - Stalingrad,4,0,26,48.805713897355375,2.320202328264713,2021-05-24 13:32:59
235513935,Carducci - Place Hannah Arendt,1,1,24,48.877436681515796,2.3860743641853337,2021-05-24 13:31:37
27206194,Saint-Jacques - Val de Grâce,1,0,18,48.8417514,2.3413893,2021-05-24 13:32:44
102323152,Manin - Carrières d'Amérique,3,3,14,48.88467214209463,2.3919698596000676,2021-05-24 13:32:41
82584215,Place Lafayette,28,5,26,48.829654975522296,2.263867557048798,2021-05-24 13:36:11
129060764,Victor Hugo - Jeanne Jugan,6,5,15,48.843949064031825,2.415081394834419,2021-05-24 13:35:35
828134511,Porte de Vanves,4,2,25,48.82801284944511,2.3056878894567485,2021-05-24 13:34:24
586649404,Conservatoire de Musique,6,7,10,48.77093586667601,2.4034014344215398,2021-05-24 13:36:14
76199461,Championnet - Vauvenargues,1,0,29,48.89401874744574,2.3319872841238976,2021-05-24 13:33:35
271426439,Buisson Saint-Louis - Saint-Maur,2,5,13,48.87174684930295,2.3722528328789854,2021-05-24 13:34:25
213684314,Fédération - Suffren,18,3,4,48.852828153442346,2.2978776320815086,2021-05-24 13:36:01
27363187,Place Albert Kahn,13,6,25,48.8957969797804,2.345585584134864,2021-05-24 13:32:48
230952057,Place Marcel Cachin,19,1,11,48.81411442356866,2.39090770483017,2021-05-24 13:35:37
42517412,Gambetta - Saint Fargeau,0,1,22,48.871244610447015,2.4039056897163396,2021-05-24 13:30:55
37815993,Mutualité,19,3,15,48.8482255727241,2.350287325680256,2021-05-24 13:36:10
213683101,Lecourbe - Jean Maridor,5,2,12,48.83796366147599,2.2877392172813416,2021-05-24 13:31:18
213684750,Grenelle - Violet,13,2,19,48.84993035512154,2.294612042605877,2021-05-24 13:32:07
129067920,Mouton Duvernet - Général Leclerc,3,2,32,48.831632518292565,2.3293121159076686,2021-05-24 13:33:26
2515049357,Erasme - Ulm,3,7,14,48.84264375274712,2.3445946723222733,2021-05-24 13:30:54
27364743,Marc Sangnier - Porte de Vanves,1,1,18,48.825218683556734,2.3107116669416428,2021-05-24 13:33:11
102314792,Etienne Jodelle - Saint Ouen,5,0,26,48.88794016394694,2.326124420314341,2021-05-24 13:33:30
35447568,Guy Môquet - Etienne Dolet,0,0,22,48.81527009991819,2.298078276995073,2021-05-24 13:35:52
27415736,Jean Jaurès - Presles,2,7,19,48.90713441498779,2.396005728053061,2021-05-24 13:36:13
583178525,Boissière - Etienne Dolet,1,5,14,48.876111,2.4677312,2021-05-24 13:32:26
2514995690,Chabanais - Petits Champs,19,0,10,48.86703740186721,2.336716018617153,2021-05-24 13:34:20
572566600,Edouard Tremblay - Julian Grimau,0,1,28,48.78138382511671,2.3723508417606354,2021-05-24 13:32:20
82387816,Bertie Albrecht - Hoche,6,2,21,48.87614039826388,2.301303138307601,2021-05-24 13:32:09
213679512,Sibelle - Alésia,10,0,15,48.826701758539215,2.3384983465075493,2021-05-24 13:32:51
213685090,Cevennes - Bergers,10,4,14,48.84240765130395,2.281037718057633,2021-05-24 13:29:48
301841024,Molière - République,7,6,17,48.81111581390707,2.3145738624448158,2021-05-24 13:29:22
213676294,Chevaleret - Tolbiac,4,1,16,48.82941,2.375934,2021-05-24 13:31:01
85147829,Hôtel de Ville de Boulogne Billancourt,9,4,13,48.83495885166784,2.2416803240776066,2021-05-24 13:34:42
588452142,Hoche - Jean Lolive,2,0,20,48.89110239200789,2.402843534946442,2021-05-24 13:33:54
213681356,David Weill - Parc Montsouris,1,0,21,48.821092374256104,2.333725690841675,2021-05-24 13:36:02
213685514,Place Robert Guillemard,10,6,7,48.836191728066666,2.2811267160086417,2021-05-24 13:35:27
66491402,Marcadet - Barbès,5,3,29,48.89045112096476,2.349057392968696,2021-05-24 13:35:37
2515351285,Vaugirard - Place Henri Rollet,13,2,12,48.83659148147257,2.2930556908249855,2021-05-24 13:35:49
102329800,Marcelin Berthelot,16,7,3,48.8415473058801,2.233161628246308,2021-05-24 13:34:47
129038848,Enghien - Faubourg Poissonnière,0,0,16,48.87242006305313,2.348395236282807,2021-02-21 21:15:22
54000625,Repos - Cimetière du Père Lachaise,15,2,14,48.859358523592554,2.389613136684456,2021-05-24 13:30:55
213911772,François Debergue - Croix de Chavaux,3,1,50,48.857421708072074,2.437578141689301,2021-05-24 13:29:59
129132870,Nationale - Place Jules Guesde,3,1,18,48.82753962462998,2.2416052222251897,2021-05-24 13:31:16
620403530,Gabriel Péri - Danielle Casanova,6,0,14,48.790114,2.4025777,2021-05-24 13:34:57
66491378,Lakanal - Commerce,20,1,32,48.84442462786544,2.294059172272682,2021-05-24 13:35:00
631773910,Carnot - Pâquerettes,5,2,19,48.79592939432515,2.4261841177940373,2021-05-24 13:31:45
54000628,Claude Debussy - Marc Bloch,10,4,12,48.91038818051166,2.3117771744728093,2021-05-24 13:36:09
611152693,Tertres - Fontaine,5,3,18,48.787553654715644,2.306235730648041,2021-05-24 13:31:29
235241110,Gare Rer de Fontenay sous Bois,12,5,41,48.8436279,2.4630465,2021-05-24 13:35:04
613737748,Raspail - Manufacture des Oeillets,20,2,10,48.8094458,2.3903009,2021-05-24 13:34:21
41498023,Oberkampf - République,10,2,12,48.8654533,2.3760261,2021-05-24 13:31:22
632086890,Place de l'Eglise,7,6,15,48.791922819921815,2.395057752728462,2021-05-24 13:35:57
213945171,Noisy le Sec - Jean-Baptiste Clément,0,1,21,48.87451538963655,2.415283620357514,2021-05-24 13:30:57
129093478,Place de la Porte de Champerret,3,2,19,48.88561741628322,2.290781411279206,2021-05-24 13:26:56
463297497,Marcelle - Thalie,0,1,18,48.8835462,2.4137883,2021-05-24 13:29:31
213875650,Henri Ste-Claire Déville - Paul Héroult,7,2,14,48.892663,2.172411,2021-05-24 13:34:15
245187072,Louis Lumière - Porte de Bagnolet,9,1,9,48.86431136000005,2.4105210229754443,2021-05-24 13:29:42
129144878,Paris - Emile Zola,11,3,15,48.854898095789295,2.4186685681343083,2021-05-24 13:33:09
27415665,Jean Jaurès - Salvador Allende,2,3,37,48.821475594736775,2.3026576638221745,2021-05-24 13:35:23
593238093,Victoire - Chaussée d'Antin,5,2,17,48.875065791004396,2.3316738009452824,2021-05-24 13:27:33
102331767,Victor Hugo - Galliéni,5,2,23,48.83802015441127,2.2460845112800603,2021-05-24 13:28:20
1062671597,Cossonnerie - Sébastopol,19,1,4,48.86132665908402,2.349419631063938,2021-05-24 13:33:05
37791,Richard Lenoir - Jean-Pierre Timbaud,6,7,21,48.86580427668637,2.369337074966926,2021-05-24 13:35:14
50156117,Legendre - Dulong,1,2,18,48.885325169402904,2.316423766314984,2021-05-24 13:35:58
35908,Cujas - Saint-Michel,4,5,10,48.84819134858432,2.34183165485398,2021-05-24 13:30:28
15462236,Galilée - Kléber,5,8,20,48.86741186571367,2.290781380114821,2021-05-24 13:30:48
1765749389,Karl Marx,5,1,10,48.784527937293184,2.3646667979455587,2021-05-24 13:32:49
210744286,Chemin Vert - Saint-Maur,4,5,34,48.86112461407359,2.381299026310444,2021-05-24 13:35:45
101024234,Quai Panhard et Levassor,27,6,23,48.82837482809675,2.384273745805574,2021-05-24 13:34:08
213992316,Square du Théâtre du Garde-Chasse,0,1,49,48.881287375060616,2.420119643211365,2021-05-24 13:32:26
213694482,Botzaris - Parc des Buttes Chaumont,2,0,17,48.877951,2.381464,2021-05-24 13:30:01
39799329,Faubourg Montmartre - La Fayette,15,4,15,48.87525454905335,2.340853661298752,2021-05-24 13:36:10
129011497,Rochechouart lamartine,2,2,19,48.876719895109,2.344393021853951,2021-05-24 13:34:15
101743895,Joseph Liouville - Croix Nivert,31,4,29,48.844835471244416,2.297508493065834,2021-05-24 13:36:03
213691848,Place Madeleine Daniélou,4,2,33,48.883498,2.282015,2021-05-24 13:35:28
210396518,Estrapade - Ulm,0,3,13,48.84512772828039,2.3454568170361734,2021-05-24 13:28:42
97677210,Parmentier - République ,5,4,36,48.8644954,2.3750124,2021-05-24 13:34:52
875078767,Lieutenant Chauré - Etienne Marey,1,1,17,48.86746195408435,2.405970990657807,2021-05-24 13:28:36
213683992,Cauchy - Cévennes,41,2,7,48.8433725710224,2.275132834911347,2021-05-24 13:34:22
102338493,Larmeroux - Baudelaire,2,3,24,48.816939911291605,2.280989480484553,2021-05-24 13:30:33
54000601,Jean-François Lépine - Stephenson,0,2,20,48.88611466796807,2.356855627529275,2021-05-24 13:28:41
27362896,Beffroy,1,0,23,48.886591074487995,2.261394560337067,2021-05-24 13:34:03
213687140,Molitor - Chardon-Lagache,5,6,23,48.84520880183234,2.2656840831041336,2021-05-24 13:29:34
235599121,Général De Gaulle - Alouette,7,0,17,48.839109,2.4175664,2021-05-24 13:35:04
213680917,Abbé Carton - Plantes,2,3,19,48.827673823165846,2.320918142795563,2021-05-24 13:29:07
1057774603,Marie-Georges Picquart - Pereire,3,1,27,48.88863669349711,2.3111706599593163,2021-05-24 13:36:00
213688462,Sablons - Georges Mandel,8,4,26,48.863875,2.28189,2021-05-24 13:34:54
102749572,Gare RER de Vincennes,29,4,18,48.847563015126106,2.433383166790009,2021-05-24 13:36:06
549876068,Villette - Belleville,5,5,36,48.872687731400255,2.3764613270759587,2021-05-24 13:32:12
390212609,Théophile Gautier - François Millet,13,3,13,48.85034821320644,2.273029983043671,2021-05-24 13:36:07
63498079,Marché Secrétan,0,0,24,48.88125496379482,2.373463287949562,2021-05-24 12:01:25
210573120,Hoche - Tilsitt,0,5,27,48.87483645783703,2.297132313251496,2021-05-24 13:32:23
213936755,Edouard Vaillant - Galliéni,0,0,49,48.85846288166117,2.4147954583168034,2020-08-14 04:12:17
39254792,Mairie du 11ème,32,11,6,48.858925,2.3789759,2021-05-24 13:35:37
1558958733,Arche - Léonard de Vinci,1,0,24,48.89790972494496,2.2383723043644914,2021-05-24 13:30:04
2515802454,Charles de Gaulle - Sablonville,5,2,17,48.87991924860035,2.2763770446181297,2021-05-24 13:32:15
648227675,Auguste Cain - Jean Moulin,8,1,31,48.82577028927573,2.3210415244102482,2021-05-24 13:30:57
42566291,Miromesnil - La Boétie,9,2,24,48.87372241291653,2.315848097205162,2021-05-24 13:31:31
1062206433,Chemin Vert - Fraternité,1,3,15,48.877141208359035,2.4461565166711807,2021-05-24 13:31:59
129032910,Marseille - Beaurepaire,23,5,26,48.871624306962985,2.3639265082738348,2021-05-24 13:33:55
237624030,Mathurins - Auber,9,5,22,48.872988840743595,2.3294984212276404,2021-05-24 13:36:02
647826568,Saint-Germain - Thenard,23,2,6,48.850571,2.3471015,2021-05-24 13:36:05
54000577,Arago - Glacière,13,3,11,48.83486054775774,2.3445770524322067,2021-05-24 13:34:10
54001024,Parmentier - Abel Rabaud,1,1,48,48.86921273836114,2.371688821240712,2021-05-24 13:35:33
94250567,Mairie d'Ivry-sur-Seine,45,1,7,48.81057120969284,2.3842826485633855,2021-05-24 13:36:11
129078200,Parc Georges Brassens - Brancion,8,7,12,48.83227829269761,2.3022570088505745,2021-05-24 13:35:18
649888071,Place Paul Eluard,11,5,1,48.7672039733195,2.4144977331161503,2021-05-24 13:33:00
82563707,Exelmans - Michel-Ange,8,1,23,48.84309486651855,2.2597770800669053,2021-05-24 13:34:18
129143598,Pierret - Madrid,3,5,18,48.882976576876565,2.260125767248034,2021-05-24 13:31:03
213690847,Reims - Raymond Pitet,11,4,20,48.8888,2.296319,2021-05-24 13:34:35
102333275,Saint-Vincent - Verdun,16,8,10,48.819211549234495,2.254007756710053,2021-05-24 13:34:33
640629438,Aristide Briand - Gare de Bagneux,14,1,4,48.79387269664978,2.321148812770844,2021-05-24 13:34:02
27415512,Parc Roger Salengro,4,1,29,48.905303858641844,2.310559451580048,2021-05-24 13:21:17
27363362,Seine - Flandre,0,4,15,48.886785741479684,2.3746193200349808,2021-05-24 13:33:23
210746090,Grand Prieuré - Crussol,14,5,29,48.86466062793517,2.369226553182906,2021-05-24 13:35:32
213957917,Wilson - Métallurgie,1,2,24,48.909423010092326,2.3584435880184174,2021-05-24 13:31:21
54000626,Madame de Sanzillon - Mozart,4,4,14,48.90379820774301,2.3187401890754704,2021-05-24 13:35:17
6399,Hautpoul - Jean Jaurès,0,3,26,48.88639367943585,2.386541454435452,2021-05-24 13:29:53
27414841,Square d'Anvers,9,1,24,48.882633484310816,2.344884406212207,2021-05-24 13:35:05
82253759,Mairie du 7ème,16,1,9,48.8577967,2.3192664,2021-05-24 13:32:19
82457375,Volontaire - Lecourbe,13,4,14,48.8435137879902,2.3065522313117985,2021-05-24 13:35:20
54000609,Laumière - Petit,3,3,28,48.88467368538326,2.380039058625698,2021-05-24 13:32:30
82328045,Victoria - Place du Chatelet,12,7,1,48.85799259152685,2.3469167947769165,2021-05-24 13:34:30
55664548,Charonne - Faubourg Saint-Antoine,18,1,10,48.85219190969573,2.3740932717919354,2021-05-24 13:35:34
214134714,Gare Arcueil - Cachan,6,2,12,48.799824,2.328171,2021-05-24 13:35:46
214139374,Gare RER de Gentilly,0,5,24,48.814280450380224,2.3410347104072575,2021-05-24 13:36:03
213702608,Boyer - Ménilmontant,0,0,19,48.86889516267913,2.3919824145634565,2021-05-24 13:36:15
559507144,Place Jean Ferrat,2,2,20,48.8184945213025,2.3744174838066106,2021-05-24 13:31:40
101740379,Boulard - Daguerre,13,0,32,48.83446472680611,2.3293386027216907,2021-05-24 13:36:01
213694069,Flandre - Alphonse Karr,0,2,22,48.89465,2.381868,2021-05-24 13:31:45
213700358,Villiers de l'Isle Adam - Pyrénées,1,4,10,48.867362,2.396222,2021-05-24 13:31:02
653063170,Place de la Porte de Paris,6,3,30,48.93009363207303,2.3564037680625916,2021-05-24 13:33:13
3906215030,Place Amédée Gordini - Lefebvre,3,2,32,48.83061737745046,2.2920634208276174,2021-05-24 13:35:04
468843711,Saint Georges - d'Aumale,2,1,20,48.87778639599673,2.337429821491241,2021-05-24 13:34:50
129151834,Stalingrad - Désiré Chevalier,3,3,35,48.85670169739857,2.445072233676911,2021-05-24 13:33:03
237041013,Saint-Jacques - Soufflot,4,4,11,48.8465255,2.343099,2021-05-24 13:34:40
54000553,Marignan - Champs-Elysées,1,2,15,48.869495661232406,2.306613813900307,2021-05-24 13:31:09
653200142,Hôtel de Ville de Nanterre,1,5,30,48.892371898250424,2.205548956990242,2021-05-24 13:26:55
650091839,Victor Hugo - Ecoles,5,5,15,48.80476007936134,2.4180373930262093,2021-05-24 13:35:01
362869414,Hôpital Bégin,14,8,3,48.84571672113014,2.4272462725639348,2021-05-24 13:29:36
49859500,Charenton - Diderot,7,4,7,48.84617146118711,2.3793068155646324,2021-05-24 13:32:56
100859941,Raspail - Bac,14,2,36,48.855628721100935,2.3256602883338933,2021-05-24 13:35:22
49368561,Jules Ferry - Faubourg du Temple Paris,37,2,17,48.868397,2.3678933,2021-05-24 13:36:00
42743053,Stephenson - Doudeauville,4,0,32,48.888537048944826,2.3561610281467438,2021-05-24 13:34:35
213699913,Place de l'Édit de Nantes,15,6,7,48.88879,2.3785,2021-05-24 13:36:03
4329844165,Tristan Tzara -  Tchaïkovski,0,2,31,48.89490221746837,2.3648490384221077,2021-05-24 13:21:03
378626842,Anatole France - Louise Michel,10,2,37,48.88873214926474,2.2881576418876652,2021-05-24 13:31:43
478952881,Boulets - Voltaire,15,4,1,48.85218705621031,2.389030158519745,2021-05-24 13:36:14
933214552,Guynemer - Séverine ,21,2,3,48.83091743371036,2.2790706530213356,2021-05-24 13:36:02
39217683,Alfred Roll - Berthier,1,0,28,48.88780857052871,2.30009529817631,2021-03-11 02:07:09
210090269,Jean Macé - Faidherbe,22,9,30,48.85337548425958,2.3828620836138725,2021-05-24 13:31:26
376664868,Gaston Roussel - Commune de Paris,0,0,28,48.89432034553156,2.432552274419542,2021-05-24 13:34:10
2515927759,Stalingrad - Germaine Tailleferre,5,6,16,48.80257200481316,2.3786691203713417,2021-05-24 13:32:14
205955605,Bienfaisance - Place de Narvik,2,3,30,48.87660163459077,2.3129771277308464,2021-05-24 13:36:14
27414945,Montgallet - Charenton,3,1,12,48.84264777870052,2.386164927813738,2021-05-24 13:31:53
38263504,Place Jacques Madaule,5,4,16,48.8239337873086,2.2606918215751652,2021-05-24 13:36:08
66491370,Jacques Callot - Mazarine,11,1,16,48.85528017533187,2.337574325501919,2021-05-24 13:34:17
66491392,Parmentier - Hôpital Saint-Louis,4,2,37,48.87137987425661,2.369896383666685,2021-05-24 13:31:53
353462947,Richard Wallace - Place du 8 Mai 1945,13,7,10,48.87866794788021,2.2420343756675725,2021-05-24 13:35:48
1559700274,Square Gilbert Thomain,1,3,15,48.90717373809284,2.2695400938391685,2021-05-24 13:32:26
250061205,Quai d'Orsay - Invalides,0,0,18,48.863096900140626,2.316989621020396,2021-01-23 13:02:41
338762459,Edouard Poisson - Victor Hugo,4,1,26,48.91113914952997,2.3792722821235657,2021-05-24 13:32:05
213688824,Faustin Hélie - Desbordes-Valmore,2,7,23,48.859403,2.276522,2021-05-24 13:35:31
82337423,Varenne,18,1,27,48.8572026618033,2.315277121961117,2021-05-24 13:35:05
66491404,Flandre - Riquet,9,3,8,48.888013281448345,2.373759595522922,2021-05-24 13:32:04
652120758,Place de la Porte de Châtillon,8,3,46,48.8242469,2.3186306,2021-05-24 13:30:31
501318622,Montreuil - Gonnet,2,4,17,48.85050056492107,2.389085628786445,2021-05-24 13:29:17
66491393,Dupleix - du Guesclin,16,7,23,48.85147910413369,2.296709530055523,2021-05-24 13:31:43
323486248,Montgallet - Reuilly,0,2,14,48.844291,2.3896481,2021-05-24 13:31:53
341388492,Place des Ternes,4,1,38,48.878438631226516,2.297727763652802,2021-05-24 13:33:27
1062223873,Ancien Canal - Hélène Brion,3,2,15,48.89484799296163,2.4188338592648506,2021-05-24 13:30:20
49085250,Departement - Pajol,9,4,6,48.886674849730184,2.3613611608743668,2021-05-24 13:36:11
376526598,Mairie des Lilas,1,2,44,48.8792834,2.4160182,2021-05-24 13:34:55
27071684,Porte de Vincennes,2,2,29,48.846454,2.415514,2021-05-24 13:31:54
2515907297,Pasteur - Gambetta,5,1,11,48.84572797384512,2.4236011505126953,2021-05-24 13:35:48
66491401,Fragonard - Porte de Clichy,3,5,46,48.89415563341899,2.314389310777188,2021-05-24 13:35:53
985828965,Place de Verdun,31,1,7,48.8202823,2.473775,2021-05-24 13:34:38
54000597,Bayen - Pereire,9,4,8,48.881804409079656,2.2921088710427284,2021-05-24 13:35:37
570185777,Gare de Courbevoie,3,2,30,48.8993867,2.2506506,2021-05-24 13:32:52
470807791,Jardin d'Acclimatation,4,3,25,48.878772242510465,2.270772233605385,2021-05-24 13:35:58
82445192,Gare Montparnasse - René Mouchotte,9,4,24,48.83920384329242,2.320883944630623,2021-05-24 13:34:07
2515658032,Clignancourt - Sofia,2,4,11,48.88511992309783,2.34719488842051,2021-05-24 13:33:14
568135465,Paul Vaillant Couturier - Chaptal,5,0,33,48.89347957618252,2.277525365352631,2021-05-24 13:31:08
567884788,Vincent Auriol - Louise Weiss,11,5,5,48.83400193550147,2.370388805866242,2021-05-24 13:35:05
214102967,Gare de Laplace,4,7,30,48.80893199114179,2.3349460959434514,2021-05-24 13:36:13
82417874,Alexandre Dumas - Voltaire,16,4,34,48.85288867036487,2.389147640809553,2021-05-24 13:32:27
102319838,Quai de la Loire - Jean Jaurès,7,5,2,48.88339733854529,2.371074522980134,2021-05-24 13:36:08
82423726,Gare de Lyon - Roland Barthes,42,3,23,48.84395729494058,2.3790882155299187,2021-05-24 13:36:12
652192395,Route de Sèvres - Porte de Bagatelle,12,2,52,48.87525984132485,2.249415814876557,2021-05-24 13:32:18
571923059,Bordier - Félix Faure,1,5,40,48.90390751882016,2.3830059170722966,2021-05-24 13:34:27
66491405,Charonne - Avron,1,2,21,48.85160266522164,2.398403047037931,2021-05-24 13:36:06
54000635,Félix Faure - Sadi Carnot,1,2,30,48.90812110228388,2.378623187541962,2021-05-24 13:35:53
54000544,Jussieu - Fossés Saint-Bernard,9,1,29,48.84718551002347,2.3534858599305153,2021-05-24 13:33:17
1062179194,18 juin 1940 - Buzenval,1,6,18,48.868807,2.185428,2021-05-24 13:36:03
1063017616,Mairie de La Garenne Colombes,3,3,15,48.90663823468682,2.24679596722126,2021-05-24 13:29:47
378648513,Jean Colly - Tolbiac,1,1,34,48.827817291597846,2.3705490678548813,2021-05-24 13:30:45
27278603,Porte de la Villette,16,7,3,48.89835196548483,2.386150136590004,2021-05-24 13:30:56
13497763,Ouest - Château ,4,4,14,48.83617286014242,2.319392143923804,2021-05-24 13:28:25
653042442,Place aux Étoiles,0,0,40,48.91835629408464,2.3523425683379173,2021-05-24 13:32:45
49807107,Flandrin - Henri Martin,1,2,15,48.8643275,2.2724174,2021-05-24 13:30:04
82450803,Square Cambronne,10,6,43,48.847566545259745,2.3025691509246826,2021-05-24 13:30:38
210747224,Pirogues de Bercy - Libourne,20,3,26,48.832308,2.38637,2021-05-24 13:35:06
210568512,Assemblée Nationale,38,9,16,48.86141101465194,2.320121418520769,2021-05-24 13:33:48
213691542,Porte Maillot - Pereire,8,4,37,48.877775,2.284444,2021-05-24 13:31:36
357409723,Place Violet,18,3,9,48.84487893836502,2.2905756533145905,2021-05-24 13:35:15
2515855808,Madeleine Vionnet,7,2,21,48.90251907406377,2.37408958375454,2021-05-24 13:35:32
384370499,Place Charles Vallin,2,1,23,48.83552381204077,2.302598655223847,2021-05-24 13:27:19
49403716,Commandant Rivière,3,3,20,48.872933,2.309796,2021-05-24 13:35:36
85165045,Place Jean-Baptiste Clément,6,11,6,48.81240466867336,2.3617091774940495,2021-05-24 13:35:31
27363103,Porte d'Auteuil,5,3,25,48.8479394142243,2.2608396783471107,2021-05-24 13:36:08
27415179,Sarrette - Général Leclerc,2,2,18,48.82503085292528,2.326412869398186,2021-05-24 13:36:02
54000571,Dugommier,18,1,31,48.8388110488154,2.38965779542923,2021-05-24 13:35:51
85145704,Réunion - Avron,1,2,21,48.852566752033766,2.403928068708116,2021-05-24 13:31:23
653044270,Claude Bernard - Arbalète,3,1,12,48.83976676978202,2.347510904073715,2021-05-24 13:35:33
26958435,Square des Saint-Simoniens,0,3,21,48.8701796,2.3967273,2021-05-24 13:33:02
6385,Petit - Manin,1,2,19,48.88650687534334,2.3938155401308374,2021-05-24 13:33:06
213857398,Gare de Clamart,0,1,13,48.81383535598703,2.272278964519501,2021-05-24 13:33:43
82550925,Place des Marseillais,2,1,33,48.82663907252554,2.4059280753135686,2021-05-24 13:32:56
27363096,Charenton - Wattignies,4,4,24,48.83667579640627,2.391795855555629,2021-05-24 13:33:36
210753033,Gare d'Austerlitz,4,2,8,48.842524,2.364044,2021-05-24 13:31:23
129119449,Ménilmontant - Pelleport,0,1,18,48.87068263384462,2.398959602331646,2021-05-24 13:31:34
475524450,Chanzy - Sud-Est,11,9,4,48.888912037698766,2.195632159709931,2021-05-24 13:35:44
653048150,Jussieu - Guy de la Brosse,7,5,27,48.845665,2.355653,2021-05-24 13:28:02
244400797,Jean Lolive - Parc Stalingrad,3,2,17,48.89206174403158,2.4091735482215886,2021-05-24 13:33:38
213922790,Champeaux - Gallieni,7,11,30,48.864459134684644,2.4161778017878532,2021-05-24 13:35:01
129001431,Courcelles - Place des Ternes,1,1,29,48.878199928923124,2.2992860188665043,2021-05-24 13:33:26
473204291,Victor Hugo - Magasins Généraux,7,0,27,48.903281401126755,2.368072383105755,2021-05-24 13:29:41
653203262,Parc Pierre Lagravère,12,7,10,48.92650488131725,2.239069678491417,2021-05-24 13:30:32
406806401,Guichet - Jean Jaurès,5,4,19,48.905169868129036,2.3023840785026555,2021-05-24 13:32:46
85143075,Evariste Galois,9,1,20,48.87308753734472,2.4133380129933357,2021-05-24 13:35:35
1063035479,Parvis Robert Schuman - Roger Salengro,2,3,19,48.812657470558754,2.1921751275658607,2021-05-24 13:33:14
82571110,Verdun - Place Henri IV,4,2,19,48.870797375639214,2.2277003154158592,2021-05-24 13:32:08
27399735,Ernest Renan - Parc des Expositions,38,2,10,48.83089757010408,2.2853584215044975,2021-05-24 13:33:57
54000582,Edgar Quinet - Gaité,19,0,6,48.84116092896631,2.32459545135498,2021-05-24 13:35:36
217235307,Place Carnot,0,2,23,48.85593932186797,2.441531717777252,2021-05-24 13:29:13
210748575,Gravelle - Route du Bac,2,3,46,48.824407,2.418455,2021-05-24 13:33:41
214123470, Place Léon Gambetta,21,0,2,48.81461250235386,2.4029293656349187,2021-05-24 13:35:30
129086648,Ceinture du Lac Inferieure - Saint-Cloud,9,3,30,48.86218070933143,2.2617871686816216,2021-05-24 13:35:19
217572769,Anatole France - Jean Lolive,2,1,24,48.8949922,2.4253764,2021-05-24 13:30:47
214298601,Boyer-Barret - Raymond Losserand,6,1,15,48.83329880233322,2.3173383995890617,2021-05-24 13:31:41
129125489,Piat - Parc de Belleville,3,0,18,48.87195626635528,2.384981390278095,2021-05-24 13:35:04
653046029,Place Valhubert,10,3,23,48.844182577315166,2.3640366643667217,2021-05-24 13:36:06
214122655,Lagny - Joffre,4,2,24,48.84930687084088,2.417949736118317,2021-05-24 13:35:02
15461933,Parc Monceau,6,0,12,48.88107791412864,2.3095492646098137,2021-05-24 13:32:43
43155320,Porte d'Orléans,1,1,46,48.8227639,2.3249313,2021-05-24 13:35:49
82458977,Place Falguière,4,1,18,48.83629973941847,2.3104464635252953,2021-05-24 13:33:57
214146056,Vignerons - Minimes,7,1,19,48.841486,2.430793,2021-05-24 13:30:21
129077035,Emeriau - Place de Brazzaville,35,3,12,48.850785261674964,2.2871585190296173,2021-05-24 13:35:17
221047138,Pierre et Marie Curie - Julien Grimau,0,1,17,48.870714014863225,2.424097023904324,2021-05-24 13:33:29
35196898,Gare d'Austerlitz - Quai Saint-Bernard,4,0,21,48.84369030863996,2.3657163977622986,2021-05-24 13:36:15
15308782,Sommerard - Saint-Jacques,11,1,22,48.850310432924466,2.345015835298588,2021-05-24 13:35:45
216473073,Tardieu - Chappe,2,0,14,48.88414675978186,2.3418454080820084,2021-05-24 13:35:54
37521,Petites Ecuries - Faubourg Poissonnière,11,3,4,48.87397217237368,2.348388757504776,2021-05-24 13:34:16
82421994,Gare de Bercy,0,2,32,48.839794573905685,2.382606603205204,2021-05-24 13:29:49
27033125,Pierre Ginier - Clichy,2,8,6,48.8867667,2.326228,2021-05-24 13:36:06
215495494,Batignolles - Place de Clichy,6,3,36,48.88347453575669,2.326493114233017,2021-05-24 13:36:04
129103849,Francoeur - Marcadet,3,2,15,48.89104123261663,2.340014585442034,2021-05-24 13:33:11
1057009034,Henri Chevreau - Couronnes,0,1,26,48.87033205312931,2.388777695596218,2021-05-24 13:33:17
82334007,Pascal - Claude Bernard,23,4,22,48.839061952159746,2.3499782010912895,2021-05-24 13:35:26
85008390,Grenelle - Dr Finlay,0,0,71,48.851315406715976,2.2919502854347233,2021-03-29 09:17:46
2515976231,Université,1,2,16,48.901365,2.212693,2021-05-24 13:30:18
216039437,Lamennais - Washington ,1,5,20,48.87352990026496,2.303444892168045,2021-05-24 13:29:21
129130397,Pierre Grenier - Pont de Billancourt,4,2,15,48.8258020742942,2.2487989068031315,2021-05-24 13:36:02
54000634,Bineau - Louise Michel,12,2,9,48.88666162206972,2.2843274474143986,2021-05-24 13:35:06
419381597,Professeur René Leriche - Général Leclerc ,13,0,35,48.90782845483013,2.307887971401215,2021-05-24 13:34:38
434419150,Bara - Henri Farman,15,1,20,48.833218027457846,2.2677567601203923,2021-05-24 13:33:56
54000548,Quai Voltaire,17,4,11,48.85894298617901,2.331418204714572,2021-05-24 13:35:57
54000595,Navier - Epinettes,7,1,26,48.89587780769155,2.3226776719093327,2021-05-24 13:34:39
426772876,Ledru-Rollin - Charonne,16,3,9,48.85345855607243,2.3772463581947094,2021-05-24 13:34:56
74620630,Parc de Belleville - Julien Lacroix,0,4,22,48.8703459,2.3842214,2021-05-24 13:33:07
653129412,Vladimir Ilitch Lénine - Andrée Chedid,2,0,29,48.813199499999044,2.3321458697319035,2021-05-24 13:33:09
129095489,Batignolles - Abel Truchet,2,5,20,48.88310390458221,2.323834749088381,2021-05-24 13:35:42
82421013,Charenton - Place du Col Bourgoin,14,3,19,48.84486731955409,2.382578935054453,2021-05-24 13:32:25
213686196,Lauriston - Copernic,0,0,19,48.86926,2.289918,2021-01-08 06:44:26
129134084,Morice - Général Leclerc,9,0,16,48.90245471981591,2.3128929734230046,2021-05-24 13:31:07
129036192,Gare de l'Est - Verdun,2,2,8,48.87615605427147,2.360914908320552,2021-05-24 13:36:14
210754072,Place Jean Delay,0,3,32,48.823316,2.354336,2021-05-24 13:32:29
419991048,Pont de Levallois-bécon ,3,5,41,48.8984179,2.2791311,2021-05-24 13:32:42
2820744873,Pierre Larousse - Raymond Losserand,1,1,24,48.83059564231877,2.3119183257222176,2021-05-24 13:32:06
213676825,Pitié-Salpêtrière,15,9,25,48.83748810318667,2.365213818848133,2021-05-24 13:32:13
15299574,Charles Delescluze,21,2,25,48.85242200848887,2.380632497370243,2021-05-24 13:34:31
41566122,Vasco de Gama,17,3,34,48.83671783466264,2.283664085650799,2021-05-24 13:31:14
963786819,Jonquoy - Didot,3,3,25,48.82890454823947,2.31648076325655,2021-05-24 13:33:50
427678168,Lucien Sampaix - Récollets,12,3,31,48.874330377560476,2.3621229082345963,2021-05-24 13:31:43
976762284,Place du Général de Gaulle,5,5,16,48.8525288,2.4877332,2021-05-24 13:28:58
129091653,Gare de Pont-Cardinet,5,8,20,48.88713901475306,2.314494143994255,2021-05-24 13:32:04
27414601,Saint-François-Xavier,8,2,32,48.851544847689894,2.3146149516105656,2021-05-24 13:29:36
252339799,Edouard Vaillant - Paul-Adolphe Souriau,2,5,21,48.83484585882868,2.2479459643363957,2021-05-24 13:29:57
224589573,Michelet - Assas,3,1,14,48.84274150283194,2.335021197795868,2021-05-24 13:32:47
220502135,Porte Dorée,4,1,30,48.8354337,2.4077132,2021-05-24 13:33:36
1805401614,Sèvres-Gallieni,19,1,5,48.83780940895712,2.2281519323587418,2021-05-24 13:34:19
129114993,Belleville - Porte des Lilas,0,4,25,48.87660391892763,2.404769691129476,2021-05-24 13:33:54
129124069,Haxo - Surmelin,0,0,21,48.8694370761222,2.40539657537972,2021-05-24 13:31:07
221041655,Porte de Clignancourt,5,7,42,48.897488,2.343996,2021-05-24 13:33:04
129061615,Primo Levi - Frigos,11,0,24,48.83094844846017,2.37965351592796,2021-05-24 13:29:42
221094844,Place Alphonse Deville,6,6,10,48.85018826266191,2.3275961726903915,2021-05-24 13:31:25
220726050,Mézières - Rennes ,4,3,48,48.85023459321703,2.3303819820284843,2021-05-24 13:33:05
254224239,Place Adolphe Cherioux - Vaugirard,17,1,45,48.83959442800459,2.3010657727718353,2021-05-24 13:35:41
252301607,Charles de Gaulle - Madrid,4,3,13,48.884432270367995,2.2608044743537907,2021-05-24 13:31:26
129116697,Tanger - Place du Maroc,0,0,19,48.8862524447104,2.3689296841621403,2021-05-24 13:30:32
977409509,Vincennes - Douy-Delcupe,5,1,31,48.85493692155721,2.436049282550812,2021-05-24 13:35:18
653055049,Place du Cornillon - Stade de France,6,8,20,48.92540695835961,2.3644426837563515,2021-05-24 13:31:36
1057769632,Porte de Saint-Ouen - Henri Huchard,4,3,19,48.898708366365064,2.3295360803604126,2021-05-24 13:33:54
1333959209,Génie - Mozart,0,0,18,48.794902381218904,2.3734183609485626,2021-05-24 13:32:06
213690256,Place du Maréchal Juin - Péreire,10,2,32,48.885263,2.298286,2021-05-24 13:32:40
476183970,Gare de l'Est - Place du 11 Novembre 1918,9,3,28,48.876327,2.3585464,2021-05-24 13:33:59
632007124,Lucie Aubrac - Franklin,3,3,27,48.86223916006812,2.4435862898826604,2021-05-24 13:34:25
977206088,Hôtel de Ville d'Argenteuil,14,1,16,48.946504,2.2496396,2021-05-24 13:32:31
213868408,Gare Routière de Saint Cloud,15,2,10,48.84288183896324,2.222245037555695,2021-05-24 13:34:57
84986959,Bastille - Biscornet,30,2,30,48.851355779578945,2.369220033288002,2021-05-24 13:30:02
43165673,Belfort - Voltaire,7,3,28,48.8563358,2.3829901,2021-05-24 13:30:05
82381710,Batignolles - Rome,0,2,13,48.881823370566806,2.3202589899301524,2021-05-24 13:33:54
224598098,Dunois - Clisson,16,2,33,48.832294,2.3674523,2021-05-24 13:34:57
10968855,Colonel Monteil - Brune,3,2,13,48.8265029331101,2.30927479982717,2021-05-24 13:26:25
82508970,Verdun - Adrien Damalix,8,0,16,48.8222334178559,2.4215328320860863,2021-05-24 13:32:35
653055097,Milton - Manuel,1,3,18,48.878249,2.341181,2021-05-24 13:26:15
221038698,Mahatma Gandhi,8,1,17,48.876356,2.264205,2021-05-24 13:29:56
27246227,Edouard Pailleron - Simon Bolivar ,1,1,20,48.87979886049996,2.374839261174202,2021-05-24 13:33:25
63297,Eglise d'Auteuil,6,1,12,48.84749841771691,2.26848387135299,2021-05-24 13:34:40
213692714,Lepic - Armée d'Orient,10,0,13,48.88753640381415,2.334307730197907,2021-05-24 13:31:47
95927849,Jean Jaurès - Jean Baptiste Clément ,9,2,10,48.84576261454011,2.2369650006294255,2021-05-24 13:34:23
102341385,Château - Bineau,3,2,18,48.890404028589806,2.270106375217438,2021-05-24 13:34:15
27415327,Courcelles - Pierre Demours,1,1,24,48.883769733273496,2.29858466343129,2021-05-24 13:36:09
54000605,Mairie du 18ème,1,2,37,48.892939296937605,2.3445510864257812,2021-05-24 13:34:44
979059925,Bridaine - Lamandé,0,1,24,48.8862074,2.3206239,2021-05-24 13:34:49
6512,Porte de Ménilmontant,1,1,13,48.8691543609174,2.40932246879487,2021-05-24 13:32:02
27363323,Laffitte - Italiens,6,1,26,48.871815737396304,2.337201547845077,2021-05-24 13:35:04
85118872,Indre - Prairies,2,2,34,48.86254398506782,2.403290458023548,2021-05-24 13:27:54
253357936,Félix Faure - Lourmel,45,4,9,48.83868901709515,2.2818081825971603,2021-05-24 13:35:53
102289046,Lourmel - Marie Skobtsov,10,0,12,48.844974,2.287283,2021-05-24 13:31:53
124402232,Belleville - Télégraphe,0,2,37,48.8756045,2.3995549,2021-05-24 13:30:28
985086307,Gare d'Asnières sur Seine,11,3,9,48.90636459217474,2.2835066914558415,2021-05-24 13:35:49
984663789,Faubourg St-Antoine - Place de la Nation,1,0,36,48.8487659,2.3940436,2021-05-24 13:28:34
100798076,Danton - Serpente,10,1,8,48.85229736258167,2.3414132371544834,2021-05-24 13:35:41
15298647,Temple - Jean-Pierre Timbaud,27,5,4,48.864465972010244,2.3660597205162053,2021-05-24 13:33:44
1063404053,République - Danton,0,2,18,48.85249172181667,2.462034523487091,2021-05-24 13:28:37
82577019,Cité des Sciences et de l'Industrie,9,3,15,48.89659571178903,2.384599149227142,2021-05-24 13:34:50
76199110,Université Paris Dauphine,0,0,0,48.870707839985386,2.2748656198382378,2021-02-11 10:14:41
54000598,Mac-Mahon - Brey,2,2,20,48.877532084130166,2.294512536052928,2021-05-24 13:35:05
2515829865,Basilique,4,4,12,48.93626891059109,2.3588666820200914,2021-05-24 13:36:01
989753852,Square des Epinettes,4,3,11,48.89383909781389,2.325953990221024,2021-05-24 13:33:28
990000217,Les Planètes ,9,2,5,48.8099849920804,2.4580853059887886,2021-05-24 13:33:13
121025345,Chabrol - d'Hauteville,3,2,5,48.87701838803332,2.3513179644942284,2021-05-24 13:35:11
39256416,Pajol - Riquet ,13,5,28,48.88960028134536,2.3628534749150276,2021-05-24 13:34:03
255207155,Lassus - Delouvain,1,1,16,48.87550448459959,2.3890327325518528,2021-05-24 13:30:35
63769334,Emile Blemont - Poteau,5,3,25,48.8943782,2.3415122,2021-05-24 13:29:55
129136818,Square du Carrefour de l'Insurrection,0,0,22,48.820864559770676,2.291113436222077,2021-05-24 13:27:49
98132679, Jean Bleuzen - Square du 11 Novembre,1,0,45,48.8232579,2.2965213,2021-05-24 13:30:45
27415469,Orteaux - Mouraud,0,3,21,48.85558642847872,2.408762907764669,2021-05-24 13:30:12
39599631,François Ponsard - La Muette ,0,0,22,48.8583666,2.2744515,2021-05-24 13:23:00
84979504,Provence - Chaussée d'Antin,5,3,17,48.87428447542072,2.332976511564311,2021-05-24 13:32:16
82404497,Ledru-Rollin - Place du Père Chaillet,2,0,35,48.856433706943704,2.379020587761426,2021-05-24 13:32:13
37936869,Assas - Vaugirard,12,1,21,48.848274111397586,2.3292413726449013,2021-05-24 13:36:02
85120104,Pelleport - Belgrand,3,4,8,48.86500081847653,2.403980836377493,2021-05-24 13:33:47
54000604,Ordener - Poissonniers,14,1,18,48.891213890844654,2.351288666219873,2021-05-24 13:30:59
101748685,Place Etienne Pernet,17,1,24,48.84243457133779,2.2921819612383847,2021-05-24 13:33:07
3230175424,Place de la République,6,1,17,48.852988,2.42467,2021-05-24 13:33:59
54000608,Porte d'Aubervilliers,14,3,37,48.89859661942376,2.3689722642302513,2021-05-24 13:35:28
653080986,Toffier Decaux - Cartier Bresson,2,2,10,48.90165072551549,2.4017545580863957,2021-05-24 13:33:38
102743096,Sadi Carnot - François Mitterrand ,1,1,25,48.87532687671517,2.4241617321968083,2021-05-24 13:26:17
653059015,Bellefond - Maubeuge,3,3,24,48.878255397644715,2.345264218747616,2021-05-24 13:29:39
126175087,Gabrielle Josserand - Edouard Vaillant,14,4,5,48.90271566255436,2.3933270573616032,2021-05-24 13:36:11
101746493,Théâtre - Lourmel,29,1,22,48.8482070397636,2.2898658737540245,2021-05-24 13:35:56
27363137,Hameau Fleuri - Marché,3,5,12,48.831448892608314,2.2412404417991643,2021-05-24 13:31:13
339797666,Charles de Gaulle - Jean Lolive,5,2,17,48.8932644350857,2.4126765131950383,2021-05-24 13:35:34
1968156458,Ecole Vétérinaire,30,4,1,48.81488859822486,2.4224362157778994,2021-05-24 13:35:07
255212362,Porte de Versailles,13,1,4,48.83215381734912,2.2871491312980647,2021-05-24 13:32:53
66491394,Square Saint-Ambroise,26,4,10,48.860934,2.375841,2021-05-24 13:33:08
991351798,Aubervilliers - Curial,2,1,20,48.89088305227546,2.3688579350709915,2021-05-24 13:32:03
7304,Bassano -  Iéna,0,1,14,48.868144510482075,2.296149600985935,2021-05-24 13:36:02
54000592,Balard - Montagne de la Fage,21,2,12,48.83850740333351,2.2782871127128606,2021-05-24 13:35:20
54000572,Diderot - Pierre Bourdan,6,1,14,48.84764862079675,2.3902582749724393,2021-05-24 13:35:58
624177860,Route de la Muette - Porte de Neuilly,0,2,48,48.8798926,2.2587671,2021-05-24 13:33:16
15409531,Méchain - Faubourg Saint-Jacques,3,4,9,48.83586772099485,2.33798034198275,2021-05-24 13:33:03
29327,Stade Auguste Delaune,12,6,0,48.80896378683884,2.4345204234123234,2021-05-24 13:35:27
125469898,Square Léon,1,1,28,48.88667396788626,2.353205569088459,2021-05-24 13:32:42
36298,Jean-Baptiste Pigalle - La Bruyere,1,0,15,48.87939826447722,2.333709173337285,2021-05-24 13:33:22
37903195,Transvaal - Charles de Gaulle ,10,1,16,48.848280403628806,2.2373420120857195,2021-05-24 13:33:39
102313219,Belliard - Damrémont,3,1,30,48.89669238777841,2.338023450388167,2021-05-24 13:29:13
100906707,Boulets - Faubourg Saint-Antoine,1,2,38,48.84925926211519,2.391754614194301,2021-05-24 13:35:38
15387809,Mozart - Jasmin,3,0,59,48.85286124871689,2.268483570651513,2021-05-24 13:32:34
66491407,Haies - Réunion,4,1,17,48.85386896766491,2.402426162238911,2021-05-24 13:34:37
27369223,Maine - Antoine Bourdelle,3,0,14,48.84308531746595,2.320263946784738,2021-05-24 13:33:52
102336814,Kléber - Gouverneur Général Eboué,14,3,2,48.826885843069796,2.2723413258790965,2021-05-24 13:32:57
484423835,Président Wilson - Jean Jaures,17,7,2,48.89034054052266,2.2920683026313786,2021-05-24 13:35:01
54000618,Pyrénées - Maraîchers,1,1,17,48.85714001395299,2.4043509364128113,2021-05-24 13:30:21
653059879,Gare RER de Saint-Denis,4,4,32,48.93554324248177,2.3471488058567047,2021-05-24 13:30:08
210583589,Place Jacques Bonsergent,22,5,6,48.870948218595146,2.3612049221992497,2021-05-24 13:35:44
653050378,Square René Viviani - Montebello,18,3,13,48.851904891406384,2.347842156887055,2021-05-24 13:33:49
84966359,Naples - Rome,10,1,15,48.879960700846226,2.321358695626259,2021-05-24 13:33:32
15291968,Place de Passy,2,7,6,48.85780291711202,2.277500546942199,2021-05-24 13:35:15
1002059045,Pont Neuf - Rivoli,19,5,2,48.86008989261731,2.344057559967041,2021-05-24 13:35:35
1002738770,Lavandieres Sainte Opportune - Rivoli,1,1,24,48.85927970247607,2.3466217517852783,2021-05-24 13:34:55
100863462,Musée d'Orsay,19,5,41,48.85972615790874,2.325860448181629,2021-05-24 13:36:12
126354477,Clichy - Place Blanche,1,4,13,48.883601088297006,2.333223782479763,2021-05-24 13:33:49
100918666,Place Pasdeloup,12,3,4,48.86265421563133,2.3670325062844237,2021-05-24 13:31:58
213987795,Wilson - Landy,0,2,38,48.91516726221354,2.357633225619793,2021-05-24 13:20:11
15397468,Maison de Radio - France,11,1,35,48.85132886434057,2.277785539627075,2021-05-24 13:32:56
129101773,Caulaincourt - Place Constantin Pecqueur,3,5,35,48.8896779050281,2.33817871442611,2021-05-24 13:33:49
42908639,Lallier - Trudaine ,5,3,20,48.88109246617963,2.3408224806189537,2021-05-24 13:36:07
6298,Gare du Nord - Saint-Vincent de Paul,1,1,22,48.88095574164779,2.352430514838522,2021-05-24 13:33:23
42499285,Petit Palais,10,0,33,48.8667692,2.3157655,2021-05-24 13:33:33
213952930,Proudhon - Président Wilson,8,8,13,48.90644276349534,2.3584905266761784,2021-05-24 13:35:23
54000549,Villersexel - Saint-Germain,8,2,6,48.858297001217615,2.323793470859528,2021-05-24 13:32:25
85162552,Fontainebleau - Edmond Michelet,7,0,35,48.80956436844049,2.3626908659935,2021-05-24 13:33:12
2515738489,Eugène Reisz - Davout,1,4,12,48.85631874632638,2.410396970808506,2021-05-24 13:33:44
52329,Chernoviz - Raynouard,3,3,30,48.8569864146289,2.282173218142987,2021-05-24 13:32:54
256561528,Eugène Oudiné - Dessous Des Berges,14,3,27,48.8256423,2.3750226,2021-05-24 13:33:54
452920451,Mont Valérien - Michel Salles,0,6,17,48.8561915,2.2152966,2021-05-24 13:32:03
37920,Traversière - Ledru-Rollin,5,5,24,48.850735824128805,2.375870111706245,2021-05-24 13:35:55
54000621,Ménilmontant - Père Lachaise,6,3,45,48.86328729150227,2.3869940266013145,2021-05-24 13:33:18
54000588,Gare Montparnasse - Vaugirard,3,2,57,48.8418071798797,2.31951002690117,2021-05-24 13:33:39
1020700136,Neuve Saint-Pierre - Beautreillis,14,4,1,48.85355351439652,2.3639122769236565,2021-05-24 13:33:22
100855693,Sabot - Rennes,6,6,14,48.852575112948415,2.331552766263485,2021-05-24 13:32:55
9931940126,Diane Arbus,4,1,31,48.898800717199,2.3524022474884987,2021-05-24 13:35:39
54000586,Pernety - Raymond Losserand,3,0,29,48.83425462795304,2.317609339386963,2021-05-24 13:28:28
102304517,Pereire - Place de Wagram,5,2,39,48.887070607581215,2.304111124531457,2021-05-24 13:34:38
128889359,Champ de Mars - Cler,19,6,12,48.856691550115315,2.306646779179573,2021-05-24 13:34:15
54000546,Sénat - Condé,16,5,12,48.84954227788459,2.337939441204071,2021-05-24 13:33:40
129042700,Granges aux Belles - Hôpital Saint-Louis,5,1,51,48.874794994841274,2.366669436984963,2021-05-24 13:32:20
101761298,Place du Moulin de Javel,9,3,33,48.84021670922037,2.2716060653328896,2021-05-24 13:35:12
27364581,Parc de Choisy,1,5,18,48.828156251574946,2.358513532903332,2021-05-24 13:33:06
210737808,Aqueduc - Villette,2,4,22,48.883886063895396,2.36719880331497,2021-05-24 13:34:40
256124192,Belleville - Pyrénées,2,2,37,48.8741908,2.3860039,2021-05-24 13:32:59
653127524,Gustave Eiffel - Parc des Impressionnistes,13,1,14,48.90390619651018,2.2946908324956894,2021-05-24 13:34:05
2515686699,Borrégo - Gambetta,0,1,22,48.87330497045532,2.4014145880937576,2021-05-24 13:35:37
912377361,Diderot - Reuilly,18,3,23,48.84720845606067,2.3861273378133774,2021-05-24 13:35:07
35137730,Hôpital Pitié Salpêtrière,15,3,32,48.8377016,2.3604946,2021-05-24 13:35:35
259977414,Palais des Sports,16,2,3,48.83346851742578,2.2858720645308495,2021-05-24 13:34:19
88235134,Alésia - Suisses,1,2,43,48.831682520717614,2.3149869226003754,2021-05-24 13:29:05
66491408,Calmette,1,0,30,48.88104925098552,2.424993216991425,2021-05-24 13:36:06
1021176825,Billancourt - Général Leclerc ,5,2,13,48.8322649,2.2380413,2021-05-24 13:32:49
54000611,Manin - Simon Bolivar,0,0,24,48.87649965412676,2.379407362599104,2021-05-24 13:35:26
1396728955,Bastille - Beaumarchais,12,10,0,48.85383346385182,2.3685702681541443,2021-05-24 13:36:00
224256188,Beaujon - Wagram,4,3,21,48.87535245598514,2.2964416444301605,2021-05-24 13:36:00
36151,Favart - Italiens,11,0,6,48.87144635392104,2.338290105850787,2021-05-24 13:31:54
213848056,Parvis Corentin Celton,40,1,11,48.82747252522725,2.2784319519996648,2021-05-24 13:35:38
54000545,Parc André Citroën,41,1,21,48.840639944296655,2.2780618071556096,2021-05-24 13:34:36
66505511,François 1er - Montaigne,9,2,17,48.866887649978096,2.306675575720671,2021-05-24 13:35:40
120827885,Messine - Place Du Pérou,5,2,4,48.875448033960744,2.315508019010038,2021-05-24 13:34:38
452936197,Bois de Vincennes,14,6,40,48.8338064,2.4132221,2021-05-24 13:33:31
66491386,Surcouf - Université,37,1,19,48.861273016278126,2.309453550914185,2021-05-24 13:35:27
1023083417,Ney - Charles Hermite,5,0,13,48.89874803977525,2.3645754531025887,2021-05-24 13:35:51
100872260,Duroc - Place de Breteuil,6,2,34,48.84746064114221,2.3126140236854558,2021-05-24 13:31:23
82568336,Jeanne Hornet - Girardot,0,1,28,48.873802681432146,2.427820265293122,2021-05-24 13:32:49
1025995767,Hôtel de Ville de Champigny sur Marne,12,7,2,48.81381062840488,2.5096759200096135,2021-05-24 13:34:55
54000466,Uzès - Montmartre,12,1,14,48.870790980240706,2.3431010171771054,2021-05-24 13:32:33
82432573,Porte d'Ivry,8,1,40,48.82176874759649,2.3688706755638127,2021-05-24 13:36:01
1021553839,Faubourg Poissonniere - Delta,0,1,35,48.882555807626765,2.3497482016682625,2021-05-24 13:33:08
54000541,Vieille du Temple - Francs Bourgeois,21,3,4,48.858256413365815,2.35821794718504,2021-05-24 13:35:49
653065577,Gare du Nord - Demarquay,4,3,23,48.881154,2.358411,2021-05-24 13:32:25
1034242363,Place François Mitterand,1,0,32,48.86492782016328,2.442958317697048,2021-05-24 13:31:43
335780498,Greneta - Sebastopol,26,3,3,48.86524233322809,2.3516669869422917,2021-05-24 13:32:57
256403519,Place Pigalle,3,4,13,48.8827555,2.3361566,2021-05-24 13:32:55
484387018,Place du Maquis du Vercors,3,0,28,48.877321579493575,2.4083782732486725,2021-05-24 13:33:19
544249939,Raspail - Chomel,24,4,21,48.852233164303094,2.3266580700874333,2021-05-24 13:34:50
1035816937,Poissonniers - Nord,5,2,17,48.892511213520656,2.3522228747606277,2021-05-24 13:31:58
101490103,Saint-Jacques - Tombe Issoire,3,4,16,48.833206330538864,2.3369108140468597,2021-05-24 13:35:13
315525484,Berges de Seine - Musée d'Orsay,0,0,16,48.8627885936562,2.3064593598246574,2021-01-27 07:51:48
66507229,Reims - Porte d'Asnières,3,1,21,48.891834448210986,2.300144659954865,2021-05-24 13:35:41
54000539,Hôtel de Ville - Pont-Marie,8,2,24,48.85389964552738,2.356947250664234,2021-05-24 13:35:46
27415012,Bercy,27,3,36,48.83996691499447,2.378862574696541,2021-05-24 13:36:07
263610599,Centenaire - Sorins,1,1,42,48.85853523359734,2.4273508787155156,2021-05-24 13:33:51
27415215,Romain Rolland,3,1,21,48.820215229662765,2.3234144234418346,2021-05-24 13:28:17
49772483,Damrémont - Caulaincourt,0,1,17,48.88714509078738,2.3325880989432335,2021-05-24 13:33:32
653066427,Franciade - Gabriel Péri,6,4,15,48.93261499331498,2.355954498052597,2021-05-24 13:34:27
129089749,Brochant - Square des Batignolles ,6,6,17,48.88818698581028,2.316861143151153,2021-05-24 13:36:14
100770878,Poissy - Saint-Germain,5,0,20,48.849696494270084,2.352968528866768,2021-05-24 13:34:39
27415297,Square Raymond Souplex,0,2,50,48.89183721478911,2.335426103165901,2021-05-24 13:34:39
54000607,Convention - Saint-Charles,13,6,0,48.84315611111599,2.2831090539693832,2021-05-24 13:34:04
13283986,Keller - La Roquette,22,0,7,48.8555508,2.3752778,2021-05-24 13:34:28
36003,Pont de Lodi - Dauphine ,9,0,13,48.855296898603285,2.339947307565249,2021-05-24 13:31:58
100910836,Parmentier - Fontaine au Roi,1,1,44,48.86787670551736,2.372705978671471,2021-05-24 13:35:19
6515,Rougemont - Poissonnière,5,4,19,48.871611569354755,2.345873080193996,2021-05-24 13:35:58
82587428,Gambetta - Hôpital Tenon,0,0,34,48.867925154026736,2.400976623546542,2021-05-24 13:35:56
41523981,Mairie du 15ème,24,2,6,48.8417762,2.2986539,2021-05-24 13:35:45
1034247348,Place des Larris,4,1,28,48.8568363,2.4780236,2021-05-24 13:35:59
54000558,Chateaubriand - Friedland,2,1,27,48.8740144756374,2.29991625786582,2021-05-24 13:32:42
35089539,Manin - Crimée,0,4,15,48.8831217743719,2.3863670602440834,2021-05-24 13:29:55
27415169,Nationale - Marcel Duchamp,6,3,14,48.82463749337136,2.3678014799952507,2021-05-24 13:34:12
15412563,Square Desnouettes,12,2,6,48.83476837934194,2.284142297394666,2021-05-24 13:31:10
30179848,Saint-Blaise - Mouraud,1,1,23,48.85696177597818,2.40869477391243,2021-05-24 13:34:07
27363029,Charonne - Philippe-Auguste,8,1,22,48.85560316202584,2.390546390619984,2021-05-24 13:35:58
484889494,Hôtel de Ville de Levallois Perret,12,2,11,48.89314451997415,2.2888818383216862,2021-05-24 13:30:15
27363256,Thérèse - Opéra,8,0,16,48.86648351450895,2.334433421223788,2021-05-24 13:36:11
100902274,Roquépine - Malesherbes,9,4,24,48.87345073390807,2.320404499769211,2021-05-24 13:34:24
15414455,Paul Doumer - La Tour,2,6,24,48.860116109626574,2.280840481911055,2021-05-24 13:32:35
27415285,Place de Finlande,10,0,12,48.86240833596654,2.311362437903881,2021-05-24 13:32:53
39536951,Vistule - Choisy,8,1,23,48.82365543660611,2.3615723848342896,2021-05-24 13:35:20
78348185,Mairie de Clichy,21,11,19,48.903653634660834,2.3059353232383732,2021-05-24 13:36:01
249554935,Quai Anatole France - Musée d'Orsay,0,0,12,48.86121174057001,2.3242460936307903,2021-01-22 21:01:53
263732151,Gambetta - Michelet,8,3,22,48.85273792380526,2.429966032505036,2021-05-24 13:33:35
1036199130,Les Juilliottes,14,4,3,48.8043072,2.4437362,2021-05-24 13:29:58
129161858,République - Henri Barbusse,3,1,28,48.90661553626751,2.389432489871979,2021-05-24 13:31:28
653035822,Jeûneurs - Mulhouse,11,10,6,48.868997,2.346925,2021-05-24 13:36:10
27414460,Danielle Casanova - Place Vendôme,13,10,13,48.86826649822326,2.3304839059710503,2021-05-24 13:34:33
653069115,Claude Vellefaux - Sambre et Meuse,4,2,27,48.875022,2.370478,2021-05-24 13:31:04
76488849,Fernand Braudel - Vincent Auriol ,23,2,10,48.83637852318147,2.3723404482007027,2021-05-24 13:33:58
66491368,Sorbonne - Ecoles,22,8,19,48.84968656619092,2.3434996604919434,2021-05-24 13:33:35
82419429,Faidherbe - Dahomey,16,3,24,48.851358329771806,2.383823134795429,2021-05-24 13:34:50
349750111,Bleue - Trévise,18,2,8,48.87578906564573,2.347289621829987,2021-05-24 13:34:22
52453,Le Vau - Maurice Bertaux,1,1,23,48.86803439043193,2.411030612453627,2021-05-24 13:32:31
210389577,Daunou - Louis le Grand,7,3,7,48.869113,2.332515,2021-05-24 13:30:33
15401095,Versailles - Claude Terrasse,16,4,26,48.84021933807409,2.263834191152959,2021-05-24 13:35:17
1055553396,Mornay - Sully,1,0,13,48.84970399548416,2.364460788667202,2021-05-24 13:33:37
210394523,Porte Saint-Martin,11,0,20,48.86860172112996,2.35570102930069,2021-05-24 13:34:37
1036226943,Parc de Sceaux - Centre-Ville,3,3,20,48.7769529826096,2.2957214713096623,2021-05-24 13:35:42
1056959071,Place Mireille Havet,18,6,17,48.850533,2.383756,2021-05-24 13:36:07
66491371,Pierre Sarrazin - Saint-Michel,20,4,8,48.85090814639774,2.3421307280659676,2021-05-24 13:36:10
486833337,Bachaumont - Montmartre,11,10,11,48.86617395079137,2.3449775576591496,2021-05-24 13:34:30
1055541632,Place Tony de Graaff,16,4,22,48.8181645,2.2458109,2021-05-24 13:32:57
66505513,François 1er - Lincoln,5,2,24,48.86951797934417,2.302426218841562,2021-05-24 13:34:18
606669250,Square Georges Melies,10,5,25,48.84070239213081,2.409667745232582,2021-05-24 13:35:38
82402482,Gare de l'Est - Chateau Landon,11,3,45,48.879305,2.362424,2021-05-24 13:33:29
75313725,Ferrus - Saint-Jacques,2,1,31,48.8313878,2.3408563,2021-05-24 13:27:43
15383032,Place du Canada,22,6,11,48.865346269362675,2.310193787964762,2021-05-24 13:33:57
60667075,Georges V - François 1er,2,1,18,48.87034,2.30082,2021-05-24 13:34:18
54000561,Lamartine - Faubourg Montmartre,8,5,19,48.87661398289084,2.339765690267086,2021-05-24 13:35:55
129050965,Place de la République - Voltaire,9,5,4,48.86683096894219,2.3654810339212418,2021-05-24 13:35:16
54001190,Mairie du 19ème,0,3,23,48.88256264247959,2.3812624812126164,2021-05-24 13:28:56
43219958,Odessa - Départ,8,1,30,48.842885590080826,2.3244281485676765,2021-05-24 13:32:14
82569809,Jardin Marguerite Long,11,1,9,48.8816985773914,2.2836575657129288,2021-05-24 13:36:11
82554786,Place de l'Eglise,0,1,27,48.892809461520265,2.4124351143836975,2021-05-24 13:33:45
266052390,Melun - Jean Jaurès,0,1,26,48.8837796723475,2.376477420330048,2021-05-24 13:31:28
82448637,Suffren - Pérignon,21,1,24,48.84717561492764,2.307052147596786,2021-05-24 13:35:01
37952191,Jean Jaurès - Reine,8,5,18,48.84009622558849,2.239872515201569,2021-05-24 13:36:11
34300292,Argenson - Château,1,8,15,48.888559314669514,2.2642001509666447,2021-05-24 13:30:10
54000567,Montreuil - Voltaire,2,6,22,48.85050701184191,2.393075558274471,2021-05-24 13:30:14
268976295,Butte aux Cailles - Esperance,12,0,23,48.82758774190948,2.3492151126265526,2021-05-24 13:31:00
27415444,Louis Ganne - Davout,6,2,21,48.86338720692607,2.409725748002529,2021-05-24 13:29:47
84983562,Roquette - Folie Regnault,8,6,38,48.859246959155485,2.386553623578705,2021-05-24 13:33:28
129081441,Vignes - Boulainvilliers,0,4,17,48.856399483950504,2.275240458548069,2021-05-24 13:31:53
653073004,Tremblay - Lac des Minimes,17,6,25,48.834131261494356,2.454751655459404,2021-05-24 13:35:14
1056986761,Terroirs de France - Lheureux,21,4,30,48.83212027074841,2.388618104159832,2021-05-24 13:35:10
41610121,Censier - Jardin des Plantes,9,7,12,48.84107178161383,2.355475388467312,2021-05-24 13:31:49
82566934,Brochant - Clichy,9,3,41,48.89032998912038,2.319730559929781,2021-05-24 13:35:16
128936618,Matignon - Faubourg Saint-Honoré,7,0,28,48.87147859116726,2.313977926969528,2021-05-24 13:34:47
262607058,Charles de Gaulle - Plateau de Vanves,4,3,24,48.82233088973263,2.298571803412886,2021-05-24 13:34:38
35106544,René Coty - Parc Montsouris,12,2,42,48.82479134498032,2.336124926805496,2021-05-24 13:28:57
267976590,François Truffaut - Saint Emilion,47,2,17,48.83372354344807,2.386601903271428,2021-05-24 13:34:42
1056965116,Lac Daumesnil - Saint-Maurice,11,1,38,48.82774555743318,2.4183654785156246,2021-05-24 13:29:51
54000630,Madeleine Michelis - Roule,6,8,9,48.88260431301364,2.2773634269833565,2021-05-24 13:33:25
1599921040,Jessaint - Marx Dormoy,5,2,22,48.88484543106364,2.358930408954621,2021-05-24 13:34:52
129096696,Léon - Doudeauville,1,4,7,48.88832421845225,2.353573372638597,2021-05-24 13:26:48
82590367,Place Marcel Sembat,6,3,46,48.83328865030686,2.2441747784614567,2021-05-24 13:30:13
82573931,René Binet - Porte de Montmartre,4,1,31,48.89905109950848,2.3365534096956253,2021-05-24 13:34:53
82436057,Moulin de la Pointe,1,3,18,48.82092946051445,2.3563179373741145,2021-05-24 13:26:19
269953055,Quai Marcel Boyer - Victor Hugo,5,1,23,48.82255636666729,2.392039597034455,2021-05-24 13:33:15
460558111,Square du Bataclan,11,2,6,48.8633762,2.3711327,2021-05-24 13:32:10
271540743,Gare de Clichy-Levallois ,2,2,19,48.89679827481989,2.2984680533409123,2021-05-24 13:31:49
452347778,Daumesnil - Picpus,9,5,7,48.8374688,2.401765,2021-05-24 13:35:03
13372702,Saint-Fargeau - Mortier,3,0,30,48.87266656122256,2.407912909984589,2021-05-24 13:36:10
1599931563,République - Auguste Perret,3,0,26,48.78695280952244,2.3518594354391094,2021-05-24 13:31:01
15411223,Dareau - Broussais,3,3,18,48.8307758,2.3361804,2021-05-24 13:35:16
85152599,Le Corbusier - Jean Jaurès,21,4,18,48.83780830557548,2.2408381104469304,2021-05-24 13:35:27
284711589,Beaumarchais - Pas de la Mule,9,5,0,48.855580507049055,2.368433367343057,2021-05-24 13:34:01
357491025,Place Centrale ,0,1,19,48.78740167690531,2.2278830409049992,2021-05-24 13:31:02
30550,Mairie du 9ème,6,3,15,48.87326713758289,2.340753448052758,2021-05-24 13:35:46
478593396,Jean Moulin - Paul Doumer,1,6,12,48.8622179854695,2.45533436536789,2021-05-24 13:31:51
213675430,Boutroux - Porte de Vitry,14,7,28,48.822632,2.377738,2021-05-24 13:36:14
462875227,Jules Guesde - Alsace,5,4,16,48.89056627550627,2.295077741146088,2021-05-24 13:31:54
213693126,Véron - Lepic,1,2,20,48.88526123395252,2.334559857845307,2021-05-24 13:35:55
363735875,Pont De Charenton,8,3,6,48.8179685,2.4199531,2021-05-24 13:31:41
265266148,Pierre Brossolette - Adolphe Pinard,7,5,12,48.82177227954821,2.313155829906464,2021-05-24 13:33:38
390075668,Stade Georges Carpentier,2,4,33,48.82048243838136,2.366832196712494,2021-05-24 13:33:30
457713145,Gare de Nanterre Ville,5,4,34,48.8950295,2.1957932,2021-05-24 13:30:20
392576677,Senard - Charles Blum,3,6,12,48.857315824799,2.221091687679291,2021-05-24 13:36:01
124390478,Commandant l'Herminier - Gallieni,1,1,15,48.84704055260307,2.416045367717743,2021-05-24 13:35:34
338853596,Charles de Gaulle - Orléans ,1,0,23,48.88092225101522,2.271581590175629,2021-05-24 13:33:00
1056995858,Gergovie - Vercingétorix,3,3,23,48.83453413883994,2.313154547426182,2021-05-24 13:36:06
452341449,Choisy - Tolbiac,4,0,21,48.82591155587023,2.3602393269538884,2021-05-24 13:34:12
100905057,Londres - Amsterdam,2,1,19,48.878034461503965,2.326483540969424,2021-05-24 13:34:03
66491406,Cours de Vincennes - Davout,20,0,25,48.847238029965595,2.4107042336224986,2021-05-24 13:35:52
1056972307,Pyramide - Parc Floral,21,4,25,48.837442,2.440452,2021-05-24 13:33:31
653217067,Jules Guesde - Laennec,0,1,17,48.87628983900398,2.5006942078471184,2021-05-24 13:35:31
1109534105,Demi-Lune - Aristide Briand,1,0,18,48.87626381919953,2.4562818557024,2021-05-24 13:34:53
54000550,Rapp - Place du Général Gouraud,13,2,13,48.85810288510693,2.300407290458679,2021-05-24 13:33:18
653076373,Bois de Vincennes - Porte Jaune,3,4,28,48.838751246689455,2.4605489149689674,2021-05-24 13:34:06
365181481,Guy Môquet - Saint-Ouen,9,6,36,48.892777719023975,2.3270335793495183,2021-05-24 13:35:32
52456,Pré Saint-Gervais - Lilas,0,1,27,48.87787062698808,2.39590734243393,2021-05-24 13:28:57
15310509,Choron - Martyrs,3,6,8,48.877851443502536,2.3396701365709305,2021-05-24 13:33:23
27414924,Sambre et Meuse - Villette,2,7,15,48.87440566621717,2.373807237995119,2021-05-24 13:33:26
275968458,Place du Président Salvador Allende,15,4,39,48.897307310356055,2.40079153681279,2021-05-24 13:32:50
213995665,Square Edmond Pépin,4,1,25,48.88365620689917,2.4033531546592717,2021-05-24 13:33:25
272638713,Charles de Gaulle - Louis-Philippe,15,4,7,48.88162131114395,2.2712830090406526,2021-05-24 13:31:18
128928526,Clapeyron - Moscou,2,1,12,48.88078819514121,2.324815057218075,2021-05-24 13:34:44
27415123,Boussingault - Tolbiac,7,1,20,48.82603516605852,2.342176808004326,2021-05-24 13:36:10
287096529,Paul Klee - Place Augusta Holmes,18,0,25,48.838946417408025,2.3704235663952966,2021-05-24 13:34:45
97705710,Jacquard - Ternaux ,10,5,22,48.8646605,2.373162,2021-05-24 13:26:57
13242682,Alexander Fleming - Belvédère,0,2,29,48.88179064200294,2.4030599377642674,2021-05-24 13:27:03
278576043,Honoré d'Estienne d'Ovres - Grilles,4,5,8,48.89056394743836,2.4064831843792427,2021-05-24 13:36:08
213695073,Hôpital Robert Debré,0,0,32,48.88005222200894,2.4008650346327003,2021-05-24 13:33:07
284708999,Santé - Arago,2,1,34,48.83507657562064,2.3415737262044938,2021-05-24 13:35:07
653079520,Averroès - Aimé Césaire,2,10,7,48.91405323432864,2.412636950612068,2021-05-24 13:33:22
653076393,Place du Front Populaire - George Sand,8,5,18,48.90680713698062,2.364541214992642,2021-05-24 13:36:07
7261,Athènes - Clichy,3,2,15,48.878113787876,2.32956021945824,2021-05-24 13:32:21
129069108,Paul Barruel - Vaugirard,5,3,31,48.84014918546239,2.3044332861900334,2021-05-24 13:30:40
291354793,Gare de Lyon - Van Gogh,20,2,29,48.8438397856433,2.370445024035681,2021-05-24 13:30:13
30641281,Place de la Montagne du Goulet,15,1,5,48.8443415,2.2773844,2021-05-24 13:35:58
54000593,Longchamp - Place d'Iéna,6,13,20,48.86491723343388,2.2926748171448708,2021-05-24 13:30:50
27362949,Louis Blanc - Jemmapes,5,1,24,48.879330755297346,2.368448562920093,2021-05-24 13:34:16
1057003116,Charles Lecocq - Lecourbe,2,2,23,48.84044,2.294867,2021-05-24 13:33:47
285726279,Quai de Valmy,2,1,22,48.88126951579429,2.368186041712761,2021-05-24 13:30:56
284787594,Place d'Italie - Vincent Auriol,10,7,22,48.83148187446674,2.356755029231863,2021-05-24 13:34:02
285454061,Square de la rue Pixérécourt,0,1,13,48.8736824,2.3960278,2021-05-24 13:33:39
41587607,Georges Bernanos - Port Royal,3,1,26,48.84014521347377,2.3373574018478394,2021-05-24 13:35:52
1056979685,Bastille - Quai de la Rapée,13,4,8,48.84682410855044,2.366936467587948,2021-05-24 13:36:07
653062048,Gare du Nord - Place de Valenciennes,0,0,25,48.879089,2.354235,2021-05-24 13:30:37
213685863,Parc Suzanne Lenglen,1,9,41,48.833250690537874,2.2765403240919113,2021-05-24 13:34:43
213686471,Eylau - Trocadéro,3,7,13,48.863354122370744,2.2864209115505223,2021-05-24 13:35:56
1062812659,Auguste Blanqui - Glacière,19,9,31,48.831151602964354,2.3438221961259837,2021-05-24 13:35:25
653079135,Mazagran - Pierre de Coubertin,5,2,8,48.816218640260445,2.344226874411106,2021-05-24 13:34:03
27363558,Wurtz - Tolbiac,10,1,15,48.82631195621006,2.344585955142975,2021-05-24 13:29:33
38319086,Pierre Demours - Laugier,6,5,26,48.8813072,2.294846,2021-05-24 13:35:31
409364001,Ivry - Simone Weil,3,4,12,48.823283932030755,2.3659095168113713,2021-05-24 13:33:11
653129435,Neuilly - Petit,0,2,11,48.898965361341254,2.29627937078476,2021-05-24 13:33:50
221032834,Metz - Faubourg Saint-Denis,12,2,33,48.870893,2.353521,2021-05-24 13:30:48
292871105,Botzaris - Crimée,4,0,16,48.87959698690176,2.3887913337477067,2021-05-24 13:31:58
124622630,Pelée - Alphonse Baudin,18,4,14,48.8600265,2.3710541,2021-05-24 13:34:31
210584503,Gare de l'Est - Fidélité,10,3,2,48.874575,2.356796,2021-05-24 13:33:24
95073815,Saint-Lazare - Place d'Estienne d'Orves,6,5,27,48.8768345,2.3329067,2021-05-24 13:34:50
362178041,Place Jules Ferry,5,2,20,48.812107928414775,2.325837314128876,2021-05-24 13:27:04
100783424,Censier - Santeuil,34,1,33,48.840658921385234,2.3537524044513702,2021-05-24 13:34:22
1057081237,Cimetière Communal,0,3,21,48.81769977392539,2.260931208729744,2021-05-24 13:35:52
422639331,Mairie de Neuilly sur Seine,9,6,13,48.88494728765838,2.2677031159400944,2021-05-24 13:36:04
42541542,Gare Montparnasse - Edgar Quinet,14,1,18,48.841487851078895,2.3233232282800524,2021-05-24 13:31:04
1057061349,Chancé Milly - Cimetière Communal Sud,12,3,17,48.89687189382465,2.303922325372696,2021-05-24 13:33:31
96512532,Joseph Sansboeuf - Saint Lazare,11,3,4,48.87531563065266,2.3229019716382027,2021-05-24 13:33:42
38280,Saint-Didier - Raymond Poincaré,1,1,15,48.86642312020962,2.285863497192411,2021-05-24 13:30:07
653125838,Cours de l'Ile Seguin - Parc Billancourt,14,2,7,48.82714055843935,2.234234511852265,2021-05-24 13:35:47
404947652,Place Fernand Forest,17,11,5,48.849269143835926,2.2818631678819656,2021-05-24 13:36:11
129142199,Marcel Yol - Jullien,0,3,26,48.82537611802588,2.287235018058929,2021-05-24 13:35:14
129121741,Belleville - Couronnes,8,2,38,48.86883108287741,2.380986213684082,2021-05-24 13:35:07
27415524,Saint-Germain-des-Prés,6,0,19,48.85418510815204,2.330305874347687,2021-05-24 13:33:36
214109662,Hôtel de ville de Fontenay-sous-Bois,1,1,17,48.84949749106274,2.4750164151191716,2021-05-24 13:26:29
653122771,Marc Sangnier - Division Leclerc,11,0,13,48.78599652305309,2.329955510795116,2021-05-24 13:30:39
303563942,Hôtel de Ville - Pont d'Arcole,0,0,20,48.85587645183987,2.350892163813114,2021-01-22 23:26:39
35147530,Pierre Levée - Fontaine Timbaud,11,2,9,48.86632723374305,2.3711163550615306,2021-05-24 13:35:21
476053320,Ecole Militaire - Place Joffre,4,1,21,48.852060203582795,2.301799356937409,2021-05-24 13:36:04
594942659,Gare du Nord - Denain,0,1,19,48.879595787608096,2.3544725775718693,2021-05-24 13:33:49
101756482,Convention - Vaugirard,19,4,23,48.83767682233156,2.295586926020252,2021-05-24 13:36:15
1057179405,Résistance - Hoche,0,2,27,48.864273423741956,2.435784414410591,2021-05-24 13:29:43
653135400,Paul Vaillant-Couturier - Gare RER,2,4,17,48.80108159069614,2.402097210288048,2021-05-24 13:34:28
213689228,Raffet - Montmorency,0,3,38,48.85258670812,2.2629252456151954,2021-05-24 13:33:54
129079313,Commerce - Letellier,15,4,25,48.84797660373612,2.2966245196598805,2021-05-24 13:35:22
129135654,Victor Cresson - Telles de la Poterie,17,6,5,48.82269884297945,2.2686498274963633,2021-05-24 13:35:50
653080383,Bruneseau - Quai d'Ivry,40,4,3,48.82494563758295,2.388566136360169,2021-05-24 13:35:36
54000614,Porte de Pantin - Petits Ponts,0,0,48,48.89041086237,2.3981939256191254,2019-06-06 09:56:04
1057039016,Fessart - Château,16,2,1,48.84245,2.23989,2021-05-24 13:35:39
1190800638,Ranelagh - Maison de la Radio,15,0,6,48.85293603169479,2.280449643731117,2021-05-24 13:33:54
36473,Cadet - La Fayette,9,0,4,48.87560163267239,2.343570403754711,2021-05-24 13:30:59
303102719,Brancion - Lefebvre,2,1,7,48.82900222785569,2.301431038163409,2021-05-24 13:33:34
27363277,Place Saint-Ferdinand,5,2,27,48.87815529789739,2.288518047864942,2021-05-24 13:34:12
6295,Pontoise - La Tournelle,3,2,18,48.85045800918843,2.352454275492188,2021-05-24 13:34:40
303452950,Hôtel de Ville de Fontenay-aux-Roses,4,8,21,48.790844603480856,2.2871455930319455,2021-05-24 13:34:28
54000617,Docteurs Déjérine - Pte de Montreuil,1,2,16,48.85398448133697,2.41208288897222,2021-05-24 13:35:44
1057045129,Cimetière communal,11,3,24,48.830764,2.252024,2021-05-24 13:31:49
653131074,Vanne - Général de Gaulle,2,4,19,48.815007,2.328318,2021-05-24 13:31:45
308082350,Malakoff - Place de la Porte Maillot,4,4,22,48.876733496637506,2.2834577411413193,2021-05-24 13:35:44
302725495,Gare SNCF Vanves-Malakoff,4,2,45,48.819002163836444,2.292150005103606,2021-05-24 13:29:41
653126035,Vanne - Saussaies,2,6,9,48.786404,2.338848,2021-05-24 13:36:03
210745258,Jean-Pierre Timbaud - Vaucouleurs,19,5,22,48.867937,2.377885,2021-05-24 13:29:26
457834134,André Maurois - Joseph et Marie Hackin,6,3,20,48.8778983,2.2789591,2021-05-24 13:27:45
37921892,Vinaigriers - Magenta,8,0,16,48.8731167,2.3593052,2021-05-24 13:32:43
653123610,Pierre Lefaucheux - Traversière,28,2,4,48.82435208303827,2.2417913004755974,2021-05-24 13:33:36
213691137,Carnot - Général Lanrezac,0,0,33,48.8754438707356,2.2938242935035684,2021-05-24 13:30:32
35101194,Place de l'Insurrection d'Août 1944 ,15,1,14,48.81477852751594,2.398074567317963,2021-05-24 13:31:18
54000615,Buzenval - Avron,8,1,41,48.851617204998654,2.401513597307666,2021-05-24 13:32:51
135806005,Mairie de Romainville,0,4,12,48.885109,2.435679,2021-05-24 13:30:52
311552027,Temple - Charlot,18,4,22,48.86570934379584,2.365273725072355,2021-05-24 13:34:27
653135378,Amaury Duval - Gabriel Péri,2,3,29,48.81718759671675,2.323841750621796,2021-05-24 13:33:28
82550543,Place de Barcelone - Mirabeau,36,4,14,48.84762302736417,2.2735664248466496,2021-05-24 13:35:39
402212574,Charles de Gaulle - Graviers,2,4,19,48.88315175918637,2.2648814320564274,2021-05-24 13:31:35
1057184567,Paul Signac - Aristide Briand,0,2,33,48.86950262156371,2.4502260982990265,2021-05-24 13:26:19
210751059,Hôpital - Campo-Formio,8,1,7,48.835405,2.358218,2021-05-24 13:35:42
34235349,Jean Calvin - Tournefort,13,2,13,48.84158856925782,2.348489575088024,2021-05-24 13:35:11
559980654,George V - Christophe Colomb,3,1,20,48.87046,2.30104,2021-05-24 13:33:13
1057203651,Stade de France,1,6,37,48.919141953558054,2.362065576016903,2021-05-24 13:30:50
453172172,Porte d'Italie,2,3,7,48.817161987718954,2.360236309468746,2021-05-24 13:30:10
478385490,Charles Gide - Fort de Bicêtre ,0,4,25,48.8071937956922,2.353984415531159,2021-05-24 13:32:09
102326776,Jardin de l'Hospice Debrousse,0,2,19,48.861451061938,2.405686005949974,2021-05-24 13:28:27
213706622,Vitruve - Davout,3,2,18,48.86053161154489,2.4091592812626543,2021-05-24 13:33:50
213686749,Place de la Porte de Passy,0,2,34,48.857341095470794,2.2644165538827115,2021-05-24 13:35:02
1057302263,Place Nationale - Château-des-Rentiers,3,3,12,48.829566,2.365053,2021-05-24 13:36:02
54000562,Square Alban Satragne,3,0,25,48.87534054839558,2.35588476061821,2021-05-24 13:35:40
82375611,Batignolles - Beudant,0,2,42,48.88216401466375,2.319852970540523,2021-05-24 13:33:51
27269170,Quai aux Fleurs - Pont Saint-Louis,5,1,15,48.85291595620935,2.352195717394352,2021-05-24 13:34:16
66491395,Daumesnil - Hébrard,20,3,17,48.8429,2.38474,2021-05-24 13:34:11
38192,La Motte-Picquet - Grenelle,8,3,23,48.84858321339195,2.299347817897797,2021-05-24 13:35:30
443402852,Place de Lévis,3,5,40,48.883546851533254,2.3131933808326726,2021-05-24 13:35:34
82572699,Damrémont - Ordener,2,1,27,48.893400392981874,2.336266523912805,2021-05-24 13:34:33
84958519,Arcole - Notre-Dame,18,2,11,48.85388354132773,2.3493797332048416,2021-05-24 13:35:39
1057319366,Quai de la Gare - Pont de Bercy,13,1,15,48.837307879720484,2.3740861260598494,2021-05-24 13:36:08
1062162270,Théâtre,3,0,17,48.905768309295276,2.2353921022349748,2021-05-24 13:35:09
458086607,Président Wilson - Baudin,6,4,17,48.89826887103676,2.2849336266517644,2021-05-24 13:33:16
98187918,Lobau - Hôtel de Ville,29,14,18,48.8562118,2.3532536,2021-05-24 13:35:22
7247,Charonne - Pierre Bayle,1,1,20,48.858445054261914,2.39039812238911,2021-05-24 13:31:38
653081846,Jourdan - Monticelli,6,0,24,48.822032,2.329095,2021-05-24 13:34:03
213689815,Porte d'Asnières,10,5,20,48.89035817610495,2.3036286234855656,2021-05-24 13:34:28
443198808,Gaston Tessier - Rosa Parks RER,10,4,23,48.8963765,2.3743692,2021-05-24 13:36:09
620676855,Camille Groult - Guy Môquet,5,0,17,48.787482746521306,2.3976725712418556,2021-05-24 13:32:15
1062238429,Place de l'Europe,5,0,11,48.82529858840266,2.3945679143071175,2021-05-24 13:32:04
13191324,Assas - Luxembourg,4,1,28,48.84373446877937,2.333428381875887,2021-05-24 13:32:48
101491821,Jean Moulin - Place Victor et Hélène Basch,17,7,16,48.82764910240992,2.326196730136872,2021-05-24 13:33:46
102745622,Raspail - Albert Schweitzer,10,1,15,48.81031545,2.34395871,2021-05-24 13:35:03
213999554,Jean Jaurès - Ouvrières Pivéreuses,10,1,9,48.91042343752563,2.399576604366303,2021-05-24 13:35:10
213677219,Brillat-Savarin - Küss,8,3,10,48.822203,2.350422,2021-05-24 13:29:00
6294,Marché aux fleurs,10,3,10,48.85525811539143,2.3473754525184636,2021-05-24 13:35:21
85155919,Estienne d'Orves - Henri Ginoux,1,2,27,48.815388220397274,2.320886790760933,2021-05-24 13:33:21
82562496,Benjamin Delessert - Jean Lolive,4,2,12,48.89392043619345,2.417981922626496,2021-05-24 13:36:08
369011098,Paris - Laitières,9,2,10,48.84630274151258,2.4207553267478947,2021-05-24 13:35:41
102343591,Louis Pasteur - Albert Petit,1,2,27,48.796261,2.317289,2021-05-24 13:33:16
27415150,Bobillot - Paulin Mery,6,1,15,48.829899841747384,2.3543356766748507,2021-05-24 13:32:39
82565383,Jacques Kellner - Saint-Ouen,15,1,28,48.895809485802886,2.327897409164145,2021-05-24 13:35:24
653134004,Louis Rolland - République,6,0,20,48.81710889740748,2.3193106434955717,2021-05-24 13:32:31
27415246,Javel - André Citroën,37,4,4,48.846276485475,2.2786368057131767,2021-05-24 13:34:27
389788858,Emeriau - Beaugrenelle,62,6,6,48.84791249714942,2.2843059897422795,2021-05-24 13:33:51
1056947780,Faubourg Poissonnière - Dunkerque,3,0,25,48.880883445404436,2.349934279918671,2021-05-24 13:36:13
38327,Victor Hugo - La Pompe,5,1,31,48.86795222470859,2.28146318346262,2021-05-24 13:34:52
82499609,Convention - Lourmel,10,2,24,48.84205504165568,2.2859910875558853,2021-05-24 13:35:51
100925033,Gare de Lyon - Chalon,15,1,29,48.84566619420225,2.3741452395915985,2021-05-24 13:34:13
109609241,Colmar - Victor Hugo,4,2,25,48.88652251096166,2.173960916697979,2021-05-24 13:33:11
210738704,Mazagran - Bonne Nouvelle,11,3,12,48.870047123655254,2.351124845445156,2021-05-24 13:36:07
235197110,Place de la Gare,19,3,22,48.80253358011283,2.4275037646293645,2021-05-24 13:33:57
417088374,Place Mongolfier,33,4,1,48.815160030060376,2.4592879414558415,2021-05-24 13:34:33
129145892,Paris - Désiré Préaux,0,4,42,48.85742876694898,2.4323049187660217,2021-05-24 13:35:49
439750210,Italie - Jardin Joan Miro,2,3,20,48.81990914045756,2.3592948541045193,2021-05-24 13:34:50
214097180,Paul Doumer - Stalingrad,5,7,9,48.806518992198676,2.3368880152702336,2021-05-24 13:33:49
42720305,Monceau - Malesherbes ,5,2,29,48.8795079,2.3145456,2021-05-24 13:32:53
653205656,Gare de la Garenne-Colombes,3,1,24,48.909752,2.239145,2021-05-24 13:33:20
653147618,Lucien Lanternier - Le Luth,3,3,18,48.93159430558871,2.2889783978462224,2021-05-24 13:32:31
455294759,Place Charles de Gaulle,3,4,19,48.89664310147264,2.2525700926780705,2021-05-24 13:32:22
417623119,Mairie de quartier du Plateau - Mont-Valérien,1,1,17,48.8799933,2.2072437,2021-05-24 13:36:13
54000632,Paul Vaillant-Couturier - Victor Hugo,7,2,25,48.89819702263572,2.293848017974069,2021-05-24 13:34:34
428088564,La Jarry - Place Diderot,0,1,24,48.849726940367326,2.452013790607453,2021-05-24 13:32:14
27064639,Vaugirard - Pasteur,3,2,16,48.84040868803496,2.3154367133975033,2021-05-24 13:31:25
85015750,Pergolèse - Malakoff,0,3,5,48.87521088779225,2.2842781618237495,2021-05-24 13:34:28
102722579,Voltaire - Anatole France,2,3,21,48.891999360256904,2.284262739121914,2021-05-24 13:30:03
365886904,Berthier - Place Stuart Merril,8,2,25,48.885927922355044,2.2933450341224675,2021-05-24 13:35:53
653083263,Lucien Bossoutrot - Général Martial Vallin,23,5,10,48.83695604631085,2.274107225239277,2021-05-24 13:33:52
39151458,Goutte d'or - Barbès,0,2,17,48.88512432362698,2.349696233868599,2021-05-24 13:36:10
468354634,Quai de l'Oise - Aisne,0,6,21,48.8906231,2.3833701,2021-05-24 13:35:10
379063990,Place du 14 Juillet,3,1,18,48.8192669595252,2.30119988322258,2021-05-24 13:26:51
221036108,Charonne - Bureau,2,3,40,48.854176,2.396093,2021-05-24 13:33:40
213692227,Square Louise Michel,7,1,28,48.88468735450907,2.3441386967897415,2021-05-24 13:28:27
75641607,Blaise-Desgoffe - Vaugirard,6,7,19,48.84612887774711,2.324267216026783,2021-05-24 13:36:06
653137566,Mairie de Clamart,0,1,31,48.800612,2.262151,2021-05-24 13:28:38
335989765,Rond-Point de la Chapelle,11,2,33,48.895126609314104,2.359971106052399,2021-05-24 13:31:18
213682190,Place Jacques et Thérèse Tréfouël,0,0,43,48.842726498316644,2.3125657439231877,2021-02-09 18:39:08
213674686,Place Jeanne d'Arc,3,0,33,48.829575,2.369126,2021-05-24 13:33:41
15212034,Gérando - Rochechouart,0,0,20,48.88294340844958,2.346484623849392,2021-05-24 13:33:05
38522,Douai - Pierre Fontaine,0,4,19,48.88229101148092,2.33324121683836,2021-05-24 13:34:06
488889101,Bessières - Porte de Clichy,14,3,15,48.89611762451474,2.31790903955698,2021-05-24 13:31:29
653083675,Maréchal Joffre - Verdun,0,1,19,48.85385,2.470307,2021-05-24 13:31:38
266422568,Place Edmond Michelet,13,3,6,48.860134890541865,2.350063696503639,2021-05-24 13:35:29
488872892,Emile Zola - Fondary,15,5,21,48.847051143113745,2.2953405976295476,2021-05-24 13:34:44
129016495,Taitbout - La Fayette,32,5,14,48.87332988919973,2.3352625966072087,2021-05-24 13:36:06
488800137,Portugais - Kléber,2,1,21,48.8712148,2.2937349,2021-05-24 13:29:32
131094294,Charles Tillon - Cimetière Communal,2,2,25,48.91844023641836,2.3935630917549138,2021-05-24 13:32:06
1057335613,Quai du Président Roosevelt - Pont Aval,10,2,17,48.8343883676388,2.2656820714473724,2021-05-24 13:30:27
491687415,Delizy - Louis Nadot,1,2,20,48.896212845581346,2.4094578623771667,2021-05-24 13:33:09
82455731,Cambronne - Villa Croix Nivert,18,1,43,48.84584756136587,2.3017574474215508,2021-05-24 13:36:07
1057730786,Halles - Bourdonnais,11,1,7,48.86044899257468,2.3460162431001663,2021-05-24 13:32:57
653141822,Île de la Jatte,4,2,15,48.894036161302104,2.2666339203715324,2021-05-24 13:34:19
488980540,Saint-Mandé - Fabre d'Eglantine,7,1,26,48.8453579,2.3965022,2021-05-24 13:36:15
54000599,Lemercier - Cardinet,5,1,17,48.890097168851746,2.317377626895905,2021-05-24 13:35:05
1057221951,Balzac - Olympes de Gouges,12,10,6,48.77850332486751,2.4006786569952965,2021-05-24 13:35:04
653137567,Place Saint-Just,2,8,12,48.790379518724265,2.3895226791501045,2021-05-24 13:32:08
54000600,Toqueville - Cardinet,1,5,24,48.88490187110713,2.3109393194317818,2021-05-24 13:33:11
39202840,Rochechouart - Martyrs,2,4,12,48.88219377957169,2.3405495658516884,2021-05-24 13:28:21
494183852,La Motte-Picquet - La Tour Maubourg,22,1,17,48.8572316,2.3094136,2021-05-24 13:35:40
1057399900,Placette Grégoire Collas,11,7,7,48.94342014002797,2.2487476095557213,2021-05-24 13:33:27
210395439,Centre Georges Pompidou,19,3,4,48.861419,2.352581,2021-05-24 13:35:59
559595472,Suffren - Champ de Mars,13,2,7,48.8547194,2.2952168,2021-05-24 13:33:53
491932748,Porte des Lilas - Faidherbe,4,1,34,48.87861855668978,2.4120327830314636,2021-05-24 13:35:22
1057329581,Square Bela Bartok,16,1,7,48.85120156830401,2.2846536710858345,2021-05-24 13:32:11
1057378487,Fort d'Aubervilliers,6,2,10,48.91502382370325,2.4035281687974925,2021-05-24 13:35:41
82336035,Saint-Germain - Ciseaux,8,8,1,48.85330527759475,2.334465461882703,2021-05-24 13:31:13
100923502,Crozatier - Faubourg Saint-Antoine,2,3,23,48.8504400134045,2.37890136621104,2021-05-24 13:35:40
1314450240,Gare du Stade,8,5,6,48.9312676,2.2603778,2021-05-24 13:32:44
2515636592,Mstislav Rostropovitch - Berthier,4,7,6,48.892120821173975,2.309234105050564,2021-05-24 13:35:00
210582231,Londres - Place d'Estienne d'Orves,3,0,21,48.876693805756986,2.3305362090468407,2021-05-24 13:34:42
1057737444,Place Ginette Hamelin,32,4,15,48.837853,2.382064,2021-05-24 13:35:38
653139063,Pont de Suresnes,23,9,17,48.8674150923217,2.225894667961703,2021-05-24 13:34:16
1057091571,Esplanade du Foncet - Camille Desmoulins,23,2,2,48.827090233494964,2.2606857866048813,2021-05-24 13:35:54
255322397,Auguste Blanqui - Corvisart,1,2,23,48.8300989,2.3502726,2021-05-24 13:29:53
653087180,Clichy - Douai,11,2,18,48.88411831886975,2.3287287354469304,2021-05-24 13:33:31
312870435,Dunkerque - Trudaine,0,1,15,48.88215166773376,2.3463253676891327,2021-05-24 13:36:07
129059516,Picpus - Louis Braille,0,3,41,48.839988788911874,2.400525668552064,2021-05-24 13:36:02
1057354004,Chemin de Bretagne,2,1,25,48.825147,2.25936,2021-05-24 13:35:56
129106450,Joseph Dijon - Ornano,7,6,20,48.89374453351521,2.3476678133010864,2021-05-24 13:30:50
1057405802,Place Nelson Mandela,0,1,29,48.897874318180556,2.2182820737361912,2021-05-24 13:32:02
653085678,Berthier - Porte de Clichy,0,0,0,48.89430232362258,2.3125627956296584,2019-02-14 10:23:11
213894629,Square Denise Buisson,0,2,42,48.8562322730982,2.426436245441437,2021-05-24 13:33:16
1227051850,Glacière - Soeur Catherine Marie,7,3,30,48.829522989420596,2.343570403754711,2021-05-24 13:35:25
27414544,Place Monge,11,0,10,48.842761803051346,2.3524079471826553,2021-05-24 13:31:25
1237624420,Maurice d'Ocagne - General Maudhuy,1,0,29,48.82414282524159,2.3158789426088333,2021-05-24 13:30:05
1057748427,Rottembourg - Général Michel Bizot,11,2,30,48.83787825992554,2.4044052511453633,2021-05-24 13:34:31
285001735,Vivienne - Montmartre,6,11,20,48.8713475973833,2.341458834707737,2021-05-24 13:34:27
54000560,Geoffroy - Marie,7,5,8,48.873781940593325,2.344513876337893,2021-05-24 13:36:10
101017160,Place de Rungis,19,3,10,48.82245594764965,2.347382729482953,2021-05-24 13:32:07
100933541,Vivaldi - Antoine-Julien Hénard,7,2,18,48.841923663276546,2.389728979467376,2021-05-24 13:33:45
36391,Godot de Mauroy - Madeleine,9,13,0,48.869789,2.326347,2021-05-24 13:33:53
100934967,Madagascar - Meuniers,4,4,25,48.83460464474706,2.3970650508999825,2021-05-24 13:24:57
76121343,Abbé Groult - Convention,3,2,7,48.83596927866069,2.302064039509349,2021-05-24 13:32:46
437741660,Saint-Denis - Rivoli,28,8,6,48.85905934084166,2.3476943001151085,2021-05-24 13:36:08
1062783107,Buffon - Jardin des Plantes,16,3,11,48.842668466104875,2.3618587106466293,2021-05-24 13:33:51
653086121,Louis Xavier de Ricard - Ancienne Mairie,1,7,25,48.84629899065091,2.472420372068882,2021-05-24 13:31:00
653139897,Lebrun - Colonel Fabien ,3,1,24,48.78266870733145,2.381317801773548,2021-05-24 13:28:59
476155906,Saint-Antoine Sévigné,12,8,4,48.8550222,2.3612322,2021-05-24 13:33:19
1062742831,Place Joffre - Frédéric le Play,10,3,23,48.85375448693786,2.3044242337346077,2021-05-24 13:36:12
27415547,Square Etienne Jarousse,5,3,15,48.82485182597129,2.2925933450460434,2021-05-24 13:31:10
54000543,Cloître Saint-Merri - Renard,22,7,3,48.85883544889818,2.351827919483185,2021-05-24 13:35:54
1015246367,Champs-Elysees - Bassano,0,0,25,48.87181180781605,2.3002389818429947,2021-02-21 20:09:18
1057765913,Hôpital Necker,2,0,37,48.846043490118454,2.313245013356209,2021-05-24 13:35:36
1062704564,Bourg l'Abbé - Saint-Martin,33,2,7,48.86393331949257,2.352406270802021,2021-05-24 13:36:11
221043930,Bagnolet - Orteaux,0,0,34,48.85708641027236,2.3984125256538396,2021-05-24 13:33:59
1057234527,Gare d'Argenteuil,1,1,38,48.947022436806705,2.256898172199726,2021-05-24 13:27:34
49498164,Mairie du 8ème ,1,1,11,48.877932,2.318264,2021-05-24 13:30:10
1057072168,Jules Guesdes - Général de Gaulle,0,2,22,48.81930581291959,2.278934195637703,2021-05-24 13:33:11
15309045,Marché Saint-Quentin,0,0,14,48.877356057652264,2.354511445637388,2021-05-24 13:31:18
1062685145,Bibliothèque Nationale,12,2,1,48.868288993514916,2.338089309632778,2021-05-24 13:34:24
1056715831,Marché Saint-Germain,10,7,4,48.85165625855281,2.335500307381153,2021-05-24 13:34:27
101742129,Cherche-Midi - Hôpital Necker,4,2,32,48.84461063309956,2.317914068698883,2021-05-24 13:34:57
101011685,Charenton - Prague,1,1,23,48.848175129981016,2.376358449431232,2021-05-24 13:34:37
1057360420,Place Aimé Césaire,0,3,24,48.783194713067815,2.2429127991199493,2021-05-24 13:27:03
49117995,Condorcet - Turgot,3,0,17,48.87985155789093,2.345232367515564,2021-05-24 13:33:10
214119792,Gare RER - Malleret-Joinville,2,1,17,48.802936,2.42531,2021-05-24 13:31:07
37504995,Jean Monnet - Iles,8,1,21,48.823393984057304,2.2497073194874866,2021-05-24 13:32:56
131908132,Parc Eli Lotar,1,3,18,48.91844993053703,2.3727085813879967,2021-05-24 13:27:07
102307005,Villiers - Batignolles,11,3,7,48.88125253846116,2.31653843075037,2021-05-24 13:31:18
125811629,Leredde - Tolbiac,6,2,35,48.828876296639876,2.374438270926476,2021-05-24 13:30:10
39149651,Richard Lenoir - Place de la Bastille,37,10,3,48.8538327,2.3697222,2021-05-24 13:36:14
1057753858,Place Charles Michels,28,3,4,48.846401,2.28502,2021-05-24 13:35:20
42907187,Richard Lenoir - Voltaire,18,6,1,48.86164273877979,2.3727491497993474,2021-05-24 13:34:17
54000590,Croix Nivert - Square Saint-Lambert,7,0,40,48.8430515215905,2.295200452208519,2021-05-24 13:36:08
54000587,Mairie du 14ème,3,2,27,48.83254578122993,2.325492314994335,2021-05-24 13:34:03
27359295,Benoît Frachon - République,10,1,18,48.85230729014318,2.415605485439301,2021-05-24 13:29:08
82468690,Dutot - Place Alleray,11,1,44,48.83682609176588,2.307170109557766,2021-05-24 13:35:15
81212212,Jean Jaurès - Jules Jacquemin,1,3,18,48.88433053604843,2.4082902455152104,2021-05-24 13:32:39
653087914,Marne - Charles de Gaulle,14,3,9,48.815071719544434,2.4121668934822087,2021-05-24 13:32:46
41219552,Saint-Benoît - Jacob,6,3,15,48.85545136013941,2.3334722220897675,2021-05-24 13:36:13
43247025,Jardins d'Eole,1,1,18,48.8869703,2.3668488,2021-05-24 13:32:25
101738550,Didot - Place de Moro-Giafferi,2,4,16,48.8337,2.3215,2021-05-24 13:35:36
54000622,Davout - Volga,5,1,22,48.852919679957296,2.410522909779111,2021-05-24 13:30:52
82339935,Porte de la Muette,4,5,27,48.86302317841182,2.2687188170157406,2021-05-24 13:29:36
27414713,Landy - Heurtault,7,4,19,48.915096534520316,2.375951372087002,2021-05-24 13:34:07
54000564,Paradis - Hauteville,6,2,20,48.874999954666755,2.3522757401923404,2021-05-24 13:35:52
13912564,Bruant - Vincent Auriol,8,2,14,48.83484845292942,2.366826499627087,2021-05-24 13:32:27
1057366813,Hôtel de Ville,23,1,5,48.824363561288756,2.2131047397851944,2021-05-24 13:34:49
58311330,Place des Droits de l'Enfant,4,3,17,48.8274804,2.3319217,2021-05-24 13:31:55
100967498,Stalingrad - Rigollots,0,1,18,48.84997403844251,2.45557576417923,2021-05-24 13:30:59
27363337,Bréguet - Sabin,9,8,8,48.856931678257446,2.3706749462105408,2021-05-24 13:36:00
37879071,Paul Bodin - Clichy,6,0,28,48.89239614618928,2.317142598330975,2021-05-24 13:35:24
70903158,Raymond Poincaré - Place Victor Hugo,5,6,12,48.870306124369975,2.285074541420228,2021-05-24 13:34:47
41464928,Sèvres - Lecourbe,8,0,53,48.8447677,2.3110086,2021-05-24 13:36:08
54000619,Porte de Bagnolet,12,0,20,48.864707139122984,2.408344637349607,2021-05-24 13:36:14
43247738,Ruisseau - Ordener,4,0,29,48.89299462568024,2.340144887566567,2021-05-24 13:34:07
82332239,Ecoles - Carmes,22,2,12,48.848904447989405,2.3473486304283147,2021-05-24 13:34:56
75525462,Plantes - Moulin Vert,4,2,39,48.83005755305626,2.3232302069664006,2021-05-24 13:35:05
15462861,Crevaux - Bugeaud,5,5,21,48.870809428669546,2.281149007691853,2021-05-24 13:34:05
38407,Flandrin - Longchamp,9,4,29,48.86877849178477,2.274354539176829,2021-05-24 13:32:24
82554449,Porte Molitor,11,2,47,48.84524763511433,2.2569015249609947,2021-05-24 13:33:06
39535340,Charles Frérot - Albert Guilpin,16,1,11,48.8155839183714,2.3505029082298283,2021-05-24 13:34:08
54000555,Jean Mermoz - Champs-Elysées,5,2,23,48.86968985685174,2.310732454061508,2021-05-24 13:34:55
653089942,Poissonniers - Championnet,16,3,7,48.89543299733937,2.3530178144574165,2021-05-24 13:32:38
101008598,Reuilly - Place Felix Eboue,0,3,39,48.84030274499962,2.394630398715453,2021-05-24 13:31:35
1057373549,Gare RER les Grésillons,9,6,7,48.919898633572764,2.31458459136273,2021-05-24 13:35:16
66491388,Alfred de Vigny - Place du Général Brocard,5,5,23,48.87836138361425,2.305254448220567,2021-05-24 13:33:24
128841079,Cambon - Rivoli,20,13,7,48.866143390992,2.3251800647136633,2021-05-24 13:36:03
220504949,Grande Truanderie - Saint-Denis,26,5,0,48.8626302,2.3498075,2021-05-24 13:31:49
54000570,Place de la Nation - Picpus,3,4,29,48.84682168154762,2.400113046169281,2021-05-24 13:29:34
38060,Gare Montparnasse - Arrivée,5,2,35,48.843827994314886,2.3225811123847966,2021-05-24 13:34:42
7295,Chevreuse - Montparnasse,6,0,8,48.841739161230905,2.331552216736739,2021-05-24 13:30:40
27296946,Square Claude Bernard,11,8,11,48.89876016219984,2.375325746834278,2021-05-24 13:35:35
653143563,Henri Ravera - Gabriel Péri,3,3,23,48.79722273833844,2.302115857601166,2021-05-24 13:33:57
443153677,Perle - Vieille du Temple,14,3,17,48.8601346,2.3611206,2021-05-24 13:35:43
15308712,Jules Vallès - Charonne,5,3,13,48.85428437993525,2.384767457842827,2021-05-24 13:32:19
66505510,Epée de Bois - Mouffetard,7,7,49,48.841508690388835,2.350066713988781,2021-05-24 13:35:09
66491391,Claude Vellefaux - Hôpital Saint-Louis,1,1,29,48.87285913900304,2.370071706985146,2021-05-24 13:32:41
1062256852,Maxime Gorki - Louis Aragon,2,2,15,48.78909814728443,2.368387877941132,2021-05-24 13:32:13
1062245074,Roger Salengro - Général de Gaulle,16,4,4,48.820029010376956,2.4846760556101803,2021-05-24 13:35:17
201923447,Murat - Porte de Saint-Cloud,5,7,26,48.83750862621299,2.2577651962637906,2021-05-24 13:36:00
265201872,Bourdon - Pont Morland,46,3,1,48.8478103,2.3659356,2021-05-24 13:36:06
1062797394,Place de la Madeleine - Royale,15,4,7,48.86922805264812,2.3244211077690125,2021-05-24 13:35:53
1057758764,Cadix - Hameau,9,3,24,48.8340107632249,2.289516180753708,2021-05-24 13:32:57
653144717,Camille Risch - Paul Armangot,4,1,20,48.774703,2.373685,2021-05-24 13:36:02
42275164,Reuilly - Daumesnil,1,2,33,48.8395385,2.3972516,2021-05-24 13:34:40
85031184,Molitor - Michel-Ange,9,0,43,48.845182081538034,2.26211277356597,2021-05-24 13:36:13
97824043,Charentonneau - Maisons Alfort,18,0,1,48.809932980484355,2.443288456496946,2021-05-24 13:35:41
66491379,Place des Abbesses,2,1,9,48.884542726149725,2.3386867716908455,2021-05-24 13:32:49
39169029,Sorbier - Ménilmontant,0,1,21,48.86854239566069,2.3897721245884895,2021-05-24 13:26:38
