station_id,station_name,available_mechanical_bikes,available_electric_bikes,available_empty_docks,latitude,longitude,date
213688169,Benjamin Godard - Victor Hugo,0,1,33,48.865983,2.275725,2021-05-04 09:34:55
99950133,André Mazet - Saint-André des Arts,14,1,37,48.85375581057431,2.3390958085656166,2021-05-04 09:34:56
516709288,Charonne - Robert et Sonia Delauney,0,2,16,48.85590755596891,2.3925706744194035,2021-05-04 09:33:49
36255,Toudouze - Clauzel,2,1,18,48.87929591733507,2.3373600840568547,2021-05-04 09:27:27
37815204,Mairie du 12ème,14,1,15,48.84085531176338,2.3875549435615544,2021-05-04 09:33:24
100769544,Harpe - Saint-Germain,16,14,9,48.85151881501689,2.343670316040516,2021-05-04 09:35:18
85002689,Jourdan - Stade Charléty,5,0,54,48.81942833336948,2.343335375189781,2021-05-04 09:31:32
54000559,Jouffroy d'Abbans - Wagram,2,3,35,48.881973298351625,2.301132157444954,2021-05-04 09:32:48
85043758,Guersant - Gouvion-Saint-Cyr,2,8,18,48.88287775178599,2.287667370814871,2021-05-04 09:32:46
123095125,Alibert - Jemmapes,7,1,52,48.8710440519842,2.366104461987773,2021-05-04 09:34:03
251039991,Cassini - Denfert-Rochereau,5,4,14,48.83752583906732,2.336035408079624,2021-05-04 09:29:16
37874517,Saint-Sulpice,4,5,10,48.85165383178419,2.3308077827095985,2021-05-04 09:34:13
66491398,Le Brun - Gobelins,2,0,46,48.835092787823875,2.353468135133752,2021-05-04 09:27:01
210403080,Lacépède - Monge,2,0,21,48.84389286531899,2.3519663885235786,2021-05-04 09:34:44
210561800,Saint-Romain - Cherche-Midi,4,1,11,48.84708159081946,2.321374788880348,2021-05-04 09:34:45
209063434,André Karman - République,1,3,27,48.91039875761846,2.3851355910301213,2021-05-04 09:33:04
94555589,Pierre et Marie Curie - Maurice Thorez,0,1,25,48.81580226360801,2.376804985105991,2021-05-04 09:33:58
244498842,Bois de Vincennes - Gare,14,0,34,48.836022242886884,2.4708339950830287,2021-05-04 09:33:46
43195240,Silly - Galliéni,5,0,18,48.835583838705936,2.2325500845909123,2021-05-04 09:34:59
210405211,Beaux-Arts - Bonaparte,2,4,14,48.856451985395786,2.334851883351803,2021-05-04 09:30:30
501862076,Place Nelson Mandela ,1,3,17,48.862090937689715,2.196576297283173,2021-05-04 09:30:10
207633746,Grande Armée - Brunel,7,6,48,48.876116,2.288124,2021-05-04 09:31:59
210566542,Square Boucicaut,27,11,19,48.851296433665276,2.325061820447445,2021-05-04 09:34:49
437597018,Invalides - Duroc,20,7,0,48.8477924732952,2.3161920905113225,2021-05-04 09:35:18
210565680,Vaneau - Sèvres,17,7,5,48.84856323305935,2.3204218259345537,2021-05-04 09:34:47
210397939,Thouin - Cardinal Lemoine,0,1,16,48.84504716661511,2.3494647851273465,2021-05-04 09:35:06
82405965,Froment - Bréguet,25,7,8,48.8570414504784,2.37289470306807,2021-05-04 09:34:12
213682736,Morillons - Dantzig,2,0,50,48.83310149953933,2.299380004405976,2021-05-04 09:35:09
80101533,Chazelles - Courcelles ,3,1,30,48.879406604954,2.3034455627202988,2021-05-04 09:30:54
54000581,Croulebarde - Corvisart,13,3,17,48.830981659316855,2.3481646925210953,2021-05-04 09:33:17
599135701,Ramponeau - Belleville,2,0,42,48.871031137596006,2.3790568521139748,2021-05-04 09:29:41
13105968,Le Brix et Mesmin - Jourdan,0,2,19,48.82234096593411,2.327861653302471,2021-05-04 09:33:17
653208733,Romainville - Vaillant-Couturier,0,1,37,48.86785,2.446748,2021-05-04 09:32:08
907054879,Liberté - Vert-de-Maisons,3,2,15,48.79014780960843,2.43286281824112,2021-05-04 09:27:49
129094535,Porte de Saint-Ouen - Bessières,3,8,30,48.89792240854517,2.32851451022192,2021-05-04 09:33:34
27415224,Bir Hakeim,15,7,8,48.853844054333514,2.289705348222022,2021-05-04 09:31:44
54000612,Cambrai - Benjamin Constant,3,1,39,48.89594736851349,2.381133802246315,2021-05-04 09:34:22
88230992,De Toqueville - Terrasse,2,0,28,48.882428,2.314002,2021-05-04 09:30:41
27415302,Michel-Ange - Parent de Rosan,5,1,20,48.840579923690115,2.2584119439125065,2021-05-04 09:29:54
102747146,Lagny - Victor Basch,11,4,10,48.84884147189881,2.426325418925233,2021-05-04 09:34:12
2515403527,Saint-Cloud - Hippodrome,6,2,22,48.85772148887421,2.2549109905958176,2021-05-04 09:32:32
653132534,Louis Lejeune - Barbès,7,3,13,48.81807418981508,2.3267009854316716,2021-05-04 09:34:00
506455295,Général Martial Valin - Pont du Garigliano,8,1,6,48.83823094269141,2.270506024360657,2021-05-04 09:34:44
1057149522,Rond-point du Dr Albert Schweitzer,8,2,7,48.78980918988166,2.3143940046429634,2021-05-04 09:34:39
210567545,Raspail - Varenne,12,0,5,48.85314781654488,2.3263905197381973,2021-05-04 09:35:11
128986726,Boétie - Ponthieu,11,11,9,48.871417284354834,2.307678759098053,2021-05-04 09:34:09
653197324,Théâtre des Amandiers - Palais des sports,2,3,19,48.89264852683893,2.2136941552162175,2021-05-04 09:27:07
210408693,Vaugirard - Monsieur le Prince,5,1,19,48.848951441614176,2.3411329463124275,2021-05-04 09:30:50
42950839,Serrurier,0,1,17,48.8804934032465,2.39806417375803,2021-05-04 09:33:51
85123644,Pyrénées - Ménilmontant,0,0,26,48.8693268535238,2.395084574818611,2021-05-04 09:32:11
499303158,Jules Guesde - Pont du Port à l'Anglais,15,6,8,48.79628807093802,2.417212128639221,2021-05-04 09:32:14
2515085147,Italie - Tolbiac,2,3,16,48.82557229464416,2.3576171323657036,2021-05-04 09:35:21
27414512,Caire - Dussoubs,21,6,12,48.86785342111862,2.349364310503006,2021-05-04 09:34:56
210580039,Tour d'Auvergne - Rodier,1,0,16,48.879161,2.343698,2021-05-04 09:25:45
49474389,Artois - Berri,7,0,16,48.87393521240818,2.3064258322119713,2021-05-04 09:33:51
128940135,Marceau - Chaillot,5,3,12,48.86883394989261,2.2989967837929726,2021-05-04 09:34:11
35149611,Liard - Amiral Mouchez,3,0,10,48.8214169,2.342167,2021-05-04 09:34:33
210570888,Las Cases - Bourgogne,5,3,13,48.85909110474066,2.3185685276985173,2021-05-04 09:33:59
129107656,Félix Ziem - Armand Gauthier,0,0,25,48.88949630486821,2.333393658804396,2021-05-04 09:25:57
129088667,Jonquière - Docteur Paul Brousse,5,0,35,48.894799816683985,2.318705212173216,2021-05-04 09:30:51
214114469,Gare de Nogent-le-Perreux,18,1,8,48.83842553348809,2.493693307042122,2021-05-04 09:35:02
1057228658,Youri Gagarine - Karl Marx,1,1,20,48.78448485079149,2.35908430069685,2021-05-04 09:35:15
230873471,Octave Feuillet - Albéric Magnard,2,4,15,48.86106902949534,2.2730283066630363,2021-05-04 09:34:24
507934805,Ney - Porte de Clignancourt ,2,2,20,48.8978867,2.3458001,2021-05-04 09:32:22
205047993,Edgar Quinet - Raspail,1,2,43,48.83940266673835,2.32971478253603,2021-05-04 09:34:45
7254,Gay Lussac - Saint-Jacques,1,2,21,48.844730256132095,2.341923944866407,2021-05-04 09:34:06
129164969,Place Jean-Spire-Lemaître,6,0,45,48.8468428626593,2.452062070369721,2021-05-04 09:35:18
128989986,Place Georges Guillaumin,6,1,21,48.874750203956566,2.301771435325988,2021-05-04 09:29:07
129004826,Bellefond - Poissonnière,2,1,14,48.87759897050706,2.348463758826256,2021-05-04 09:32:54
518825709,Jean Oestreicher - Porte de Champerret,2,0,19,48.88655580065981,2.288640439510346,2021-05-04 09:34:20
128930462,Square Louis XVI,9,6,13,48.87320440102894,2.323658830743138,2021-05-04 09:35:06
911767210,Alexandre Parodi - Quai de Valmy,0,3,20,48.87935941942529,2.366596162319184,2021-05-04 09:34:25
54000565,Granges aux Belles,6,2,17,48.8761373390584,2.3680844979417,2021-05-04 09:32:33
1057296253,Regnault - Patay,40,3,15,48.82435782216384,2.377065159380436,2021-05-04 09:34:36
210581084,Gare Saint-Lazare - Place de Budapest,5,5,34,48.877753,2.327339,2021-05-04 09:33:59
102311820,Clignancourt - Ordener,1,1,33,48.891457726153774,2.348636478060487,2021-05-04 09:32:04
210586093,Dunkerque - Rocroy,1,0,20,48.880726,2.351464,2021-05-04 09:31:49
128887067,Ségur - d'Estrées,12,5,0,48.85141997898257,2.3097044974565506,2021-05-04 09:33:28
210574471,Abbeville - Faubourg Poissonnière,2,2,9,48.879223,2.349147,2021-05-04 09:32:03
72765603,Boulangers - Cardinal Lemoine,1,0,15,48.8462904,2.3521495,2021-05-04 09:34:25
210582921,Boudreau - Auber,7,0,7,48.87219,2.329423,2021-05-04 09:35:04
55927887,Gabriel Lamé,11,0,23,48.8351212784276,2.385534569621086,2021-05-04 09:35:20
369644630,Gare de l'Est - Faubourg-Saint-Martin,1,1,28,48.87564264747718,2.3594588041305546,2021-05-04 09:34:33
43255030,Pereire - Ternes,1,1,46,48.87973954830735,2.288012132048607,2021-05-04 09:32:07
129025451,Douai - Bruxelles,0,1,26,48.88320784122797,2.3308449949028507,2021-05-04 09:33:05
128920403,Gare Saint-Lazare - Isly,13,1,11,48.874777677621296,2.326515804784655,2021-05-04 09:34:40
323616530,Quai de l'Horloge - Pont Neuf,11,4,0,48.857058739111096,2.341798283943937,2021-05-04 09:33:03
208795867,Ambroise Rendu - Porte Brunet,1,1,15,48.883667,2.395733,2021-05-04 09:32:16
1062192012,Gare Rosny-Bois-Perrier,7,1,27,48.88115023337061,2.480436824262142,2021-05-04 09:33:23
6296,Institut de France,9,3,4,48.85761567856468,2.335831353037739,2021-05-04 09:31:05
521393180,Porte Pouchet-Bessières,9,5,9,48.8978765,2.3230632,2021-05-04 09:33:01
576188379,Vigée-Lebrun - Anselme Payen,1,0,20,48.838683941628375,2.3110422492027287,2021-05-04 09:30:30
128915891,Octave Gréard - Tour Eiffel,20,2,11,48.856502977695634,2.293178754328878,2021-05-04 09:34:25
82567101,Château - République,2,6,15,48.8629238005955,2.415503561496735,2021-05-04 09:32:12
129021753,Moncey - Blanche,0,0,17,48.88006587474148,2.3310810327529907,2021-05-04 09:33:43
457813746,Henri Barbusse - Stalingrad,0,4,12,48.814183748660554,2.2872862592339516,2021-05-04 09:30:08
210740080,Gare du Nord - Hôpital Lariboisière,3,5,41,48.881949,2.352339,2021-05-04 09:33:08
35642049,Jemmapes - Ecluses Saint-Martin ,0,1,12,48.87748519186726,2.3660067468881607,2021-05-04 09:32:34
50191171,Thionville - Ourcq,1,3,19,48.88917613743794,2.3833653330802917,2021-05-04 09:35:03
102290754,Mairie du 17ème,0,0,24,48.88416184871573,2.322079431103719,2021-05-04 09:34:23
3906153622,Argenteuil - Voltaire,6,0,8,48.91864865955558,2.2814112156629562,2021-05-04 09:31:02
129087587,Legendre - Clichy,1,3,37,48.88896161855884,2.322528975094376,2021-05-04 09:31:30
213693511,Quai de la Seine,8,2,13,48.884492238407525,2.3703941702842717,2021-05-04 09:34:44
82379648,Lisbonne - Monceau,10,12,11,48.87745567681383,2.309694221419506,2021-05-04 09:29:01
95845524,Cité Riverin - Château d'Eau ,8,0,9,48.870702423554306,2.358739863900845,2021-05-04 09:33:48
230877798,Chartres - La Charbonnière,0,0,34,48.8847601,2.3534657,2021-05-04 09:34:56
303695607,Pont-Neuf - Quai du Louvre,0,0,30,48.8582958982873,2.3423714563250546,2021-01-22 22:50:04
66491397,Gare de Lyon - Place Louis Armand,27,1,32,48.8455150897939,2.3726498446286,2021-05-04 09:35:03
2515995748,Pesaro - Préfecture,0,4,18,48.89577046284005,2.223908342421055,2021-05-04 09:32:50
129014600,Rossini - Laffitte,13,12,7,48.87334627510507,2.337980867701675,2021-05-04 09:31:05
27363162,Ranelagh - Mozart,0,1,22,48.8554439,2.2704418,2021-05-04 09:33:44
128882438,Institut du Monde Arabe - Saint-Germain,9,6,22,48.84906329950134,2.3558086529374123,2021-05-04 09:34:46
102324803,Pyrénées - Emmery,0,3,37,48.872010281270974,2.392039597034455,2021-05-04 09:32:52
80419347,Lagny - Auguste Blanqui,12,5,8,48.84922568052601,2.4218603968620305,2021-05-04 09:31:58
54000569,Saint-Ambroise - Parmentier,18,4,14,48.86214784454763,2.3772348091006275,2021-05-04 09:34:32
336511521,Place de Rhin et Danube,0,1,16,48.88192765861766,2.392586767673493,2021-05-04 09:35:05
129043651,Roquette - Thiéré,4,3,15,48.85507930579506,2.3733686318721463,2021-05-04 09:30:12
82562556,Exelmans - Versailles,2,3,44,48.84097491091973,2.264390252530575,2021-05-04 09:32:18
129048000,Saint-Maur - Roquette,29,1,14,48.858688774062955,2.383553994571467,2021-05-04 09:34:55
1062250686,11 Novembre 1918 - 8 Mai 1945,1,11,23,48.80889533774377,2.5382421165704727,2021-05-04 09:34:28
261987383,Place Du Général De Gaulle,0,1,25,48.8687591,2.4329931,2021-05-04 09:31:33
813544903,Amelot - Saint-Sébastien,4,2,24,48.86114216276092,2.367799618107727,2021-05-04 09:34:47
126050442,Pereire - Rennequin,2,1,20,48.88364782887555,2.2952447086572647,2021-05-04 09:29:25
27363489,Claude Decaen - Cannebière,2,2,23,48.83761417037952,2.397253782195704,2021-05-04 09:29:33
39296638,Berri - Haussmann,7,3,24,48.874746047357135,2.3082953318953514,2021-05-04 09:32:26
101763163,Desaix - Edgar Faure,5,2,4,48.852804604940296,2.293077029857222,2021-05-04 09:33:21
205938683,Delphine Seyrig - Général Leclerc,6,5,41,48.893923963057865,2.39790290594101,2021-05-04 09:33:47
210399835,Panthéon - Valette,2,7,29,48.84702057165222,2.3464982619671075,2021-05-04 09:33:59
1057324291,Cimetière de Montrouge,0,2,55,48.822009,2.322188699,2021-05-04 09:29:49
314829539,Charles de Gaulle - Beauté,6,11,28,48.83649602312711,2.479562651149885,2021-05-04 09:35:22
653133605,Gare RER - Canadiens,33,4,7,48.81995307955795,2.464176752459464,2021-05-04 09:35:13
3906094706,Redoute - Les Courtilles,6,3,23,48.92986719451888,2.283669635653496,2021-05-04 09:28:03
27414578,Notre-Dame-des-Champs - Stanislas,7,2,9,48.84479928858768,2.329337755887181,2021-05-04 09:33:39
80216231,Belidor - Gouvion-Saint-Cyr,0,0,24,48.88022154052015,2.2854680567979813,2021-04-24 23:43:27
508042092,Pyramide - Ecole du Breuil ,20,10,4,48.82237977153955,2.4586871266365056,2021-05-04 09:33:51
42603855,Liège - Moscou,1,2,14,48.8795431,2.3264628,2021-05-04 09:32:13
818302209,Mairie de Montreuil,8,2,40,48.86131452758348,2.440614402294159,2021-05-04 09:34:34
13718041,Square Simon Bolivar,1,2,21,48.8750898883217,2.3826304078102116,2021-05-04 09:32:34
265464297,Schoelcher - Raspail,5,2,43,48.83681733526843,2.3312794080411474,2021-05-04 09:34:37
1057392676,Rouget de Lisle,11,16,1,48.764615483395254,2.4071189761161804,2021-05-04 09:34:44
102309973,Cimetière de Montmartre,0,0,42,48.886472466141925,2.3328901827335358,2021-05-04 09:33:35
532054446,Richard Lenoir - Republique,9,2,43,48.8667175,2.3692541,2021-05-04 09:34:09
129034587,Récollets - Square Villemin,1,0,16,48.875034655883944,2.359801238597928,2021-05-04 09:32:54
586539770,Marne - Germain Dardan,11,6,0,48.81154270401601,2.303070724010468,2021-05-04 09:33:53
3906335682,Roger Salengro - Fontainebleau,0,3,22,48.814548697324845,2.36116636544466,2021-05-04 09:35:05
583539396,Anatole France - President Roosevelt,7,1,20,48.9155156,2.3814103,2021-05-04 09:34:51
101753100,Henry Farman,11,1,2,48.83372430280548,2.2713854536414146,2021-05-04 09:33:57
27415466,Jourdain - Place des Grandes Rigoles,0,0,22,48.87403113727167,2.38959476351738,2021-05-04 09:33:13
88140066,Rocher - Laborde,5,7,53,48.87590240712654,2.322616316378116,2021-05-04 09:34:30
66491385,Fontenay - Libération,0,1,24,48.84780306364685,2.445141971111298,2021-05-04 09:34:09
52393,Grands Moulins de Pantin,9,5,35,48.89738369720229,2.3959985375404362,2021-05-04 09:33:58
596813170,Cimetière,0,3,12,48.84706173362218,2.4787822365760808,2021-05-04 09:30:59
209057581,Gabriel Péri - Francisco Ferrer,1,1,17,48.88633710236977,2.407338917255402,2021-05-04 09:31:06
66491389,Place de la Reine Astrid,19,8,25,48.86492098253841,2.302549182385926,2021-05-04 09:35:21
596872103,Lucie Aubrac - Fort,1,1,27,48.818144834008976,2.271184623241425,2021-05-04 09:29:17
81081358,Pajol - Place Herbert,5,3,30,48.8927825,2.3635598,2021-05-04 09:33:20
210749865,Port-Royal - Hôpital du Val-de-Grâce,6,4,7,48.8376682728114,2.344813834660711,2021-05-04 09:32:24
535500589,Hôpital Européen Georges Pompidou ,29,26,8,48.83769531916335,2.275374233722687,2021-05-04 09:34:42
597245295,Concorde - Stalingrad,2,4,29,48.7985844,2.3821302,2021-05-04 09:35:22
583171360,Jean Marin Naudin - Stalingrad,0,3,26,48.805713897355375,2.320202328264713,2021-05-04 09:35:12
235513935,Carducci - Place Hannah Arendt,0,1,26,48.877436681515796,2.3860743641853337,2021-05-04 09:33:42
27206194,Saint-Jacques - Val de Grâce,2,1,14,48.8417514,2.3413893,2021-05-04 09:34:24
102323152,Manin - Carrières d'Amérique,2,0,18,48.88467214209463,2.3919698596000676,2021-05-04 09:31:19
82584215,Place Lafayette,48,9,1,48.829654975522296,2.263867557048798,2021-05-04 09:35:08
129060764,Victor Hugo - Jeanne Jugan,4,1,22,48.843949064031825,2.415081394834419,2021-05-04 09:32:04
828134511,Porte de Vanves,11,0,20,48.82801284944511,2.3056878894567485,2021-05-04 09:35:21
586649404,Conservatoire de Musique,16,5,3,48.77093586667601,2.4034014344215398,2021-05-04 09:35:13
76199461,Championnet - Vauvenargues,2,1,30,48.89401874744574,2.3319872841238976,2021-05-04 09:35:10
271426439,Buisson Saint-Louis - Saint-Maur,3,2,13,48.87174684930295,2.3722528328789854,2021-05-04 09:26:57
213684314,Fédération - Suffren,16,1,7,48.852828153442346,2.2978776320815086,2021-05-04 09:35:14
27363187,Place Albert Kahn,1,2,43,48.8957969797804,2.345585584134864,2021-05-04 09:33:22
230952057,Place Marcel Cachin,25,4,3,48.81411442356866,2.39090770483017,2021-05-04 09:34:33
42517412,Gambetta - Saint Fargeau,0,0,24,48.871244610447015,2.4039056897163396,2021-05-04 09:32:28
37815993,Mutualité,26,2,6,48.8482255727241,2.350287325680256,2021-05-04 09:35:22
213683101,Lecourbe - Jean Maridor,11,2,6,48.83796366147599,2.2877392172813416,2021-05-04 09:35:15
213684750,Grenelle - Violet,20,1,12,48.84993035512154,2.294612042605877,2021-05-04 09:35:20
129067920,Mouton Duvernet - Général Leclerc,11,11,17,48.831632518292565,2.3293121159076686,2021-05-04 09:35:01
2515049357,Erasme - Ulm,10,13,0,48.84264375274712,2.3445946723222733,2021-05-04 09:33:37
27364743,Marc Sangnier - Porte de Vanves,3,1,16,48.825218683556734,2.3107116669416428,2021-05-04 09:33:03
102314792,Etienne Jodelle - Saint Ouen,0,0,32,48.88794016394694,2.326124420314341,2021-05-04 09:33:57
35447568,Guy Môquet - Etienne Dolet,1,0,20,48.81527009991819,2.298078276995073,2021-05-04 09:34:12
27415736,Jean Jaurès - Presles,4,9,16,48.90713441498779,2.396005728053061,2021-05-04 09:27:50
583178525,Boissière - Etienne Dolet,0,1,19,48.876111,2.4677312,2021-05-04 09:32:40
2514995690,Chabanais - Petits Champs,5,8,15,48.86703740186721,2.336716018617153,2021-05-04 09:33:08
572566600,Edouard Tremblay - Julian Grimau,2,10,17,48.78138382511671,2.3723508417606354,2021-05-04 09:32:41
82387816,Bertie Albrecht - Hoche,5,11,16,48.87614039826388,2.301303138307601,2021-05-04 09:26:49
213679512,Sibelle - Alésia,3,1,21,48.826701758539215,2.3384983465075493,2021-05-04 09:32:13
213685090,Cevennes - Bergers,8,1,19,48.84240765130395,2.281037718057633,2021-05-04 09:34:07
301841024,Molière - République,6,4,19,48.81111581390707,2.3145738624448158,2021-05-04 09:35:14
213676294,Chevaleret - Tolbiac,17,0,3,48.82941,2.375934,2021-05-04 09:30:11
85147829,Hôtel de Ville de Boulogne Billancourt,6,1,17,48.83495885166784,2.2416803240776066,2021-05-04 09:33:21
588452142,Hoche - Jean Lolive,2,1,18,48.89110239200789,2.402843534946442,2021-05-04 09:31:36
213681356,David Weill - Parc Montsouris,1,5,14,48.821092374256104,2.333725690841675,2021-05-04 09:35:17
213685514,Place Robert Guillemard,18,2,1,48.836191728066666,2.2811267160086417,2021-05-04 09:33:54
66491402,Marcadet - Barbès,1,1,35,48.89045112096476,2.349057392968696,2021-05-04 09:33:20
2515351285,Vaugirard - Place Henri Rollet,11,1,13,48.83659148147257,2.2930556908249855,2021-05-04 09:29:13
102329800,Marcelin Berthelot,5,0,22,48.8415473058801,2.233161628246308,2021-05-04 09:35:04
129038848,Enghien - Faubourg Poissonnière,0,0,16,48.87242006305313,2.348395236282807,2021-02-21 21:15:22
54000625,Repos - Cimetière du Père Lachaise,2,4,27,48.859358523592554,2.389613136684456,2021-05-04 09:35:11
213911772,François Debergue - Croix de Chavaux,1,10,43,48.857421708072074,2.437578141689301,2021-05-04 09:32:06
129132870,Nationale - Place Jules Guesde,8,4,9,48.82753962462998,2.2416052222251897,2021-05-04 09:34:28
620403530,Gabriel Péri - Danielle Casanova,4,4,11,48.790114,2.4025777,2021-05-04 09:29:51
66491378,Lakanal - Commerce,9,6,36,48.84442462786544,2.294059172272682,2021-05-04 09:34:54
631773910,Carnot - Pâquerettes,4,8,13,48.79592939432515,2.4261841177940373,2021-05-04 09:33:43
54000628,Claude Debussy - Marc Bloch,14,6,7,48.91038818051166,2.3117771744728093,2021-05-04 09:35:04
611152693,Tertres - Fontaine,1,0,25,48.787553654715644,2.306235730648041,2021-05-04 09:33:05
235241110,Gare Rer de Fontenay sous Bois,5,2,52,48.8436279,2.4630465,2021-05-04 09:33:57
613737748,Raspail - Manufacture des Oeillets,16,2,12,48.8094458,2.3903009,2021-05-04 09:34:33
41498023,Oberkampf - République,5,2,16,48.8654533,2.3760261,2021-05-04 09:33:36
632086890,Place de l'Eglise,7,14,6,48.791922819921815,2.395057752728462,2021-05-04 09:30:11
213945171,Noisy le Sec - Jean-Baptiste Clément,1,0,19,48.87451538963655,2.415283620357514,2021-05-04 09:30:29
129093478,Place de la Porte de Champerret,4,3,21,48.88561741628322,2.290781411279206,2021-05-04 09:34:29
463297497,Marcelle - Thalie,0,1,19,48.8835462,2.4137883,2021-05-04 09:34:10
213875650,Henri Ste-Claire Déville - Paul Héroult,5,4,15,48.892663,2.172411,2021-05-04 09:34:31
245187072,Louis Lumière - Porte de Bagnolet,6,0,12,48.86431136000005,2.4105210229754443,2021-05-04 09:32:19
129144878,Paris - Emile Zola,2,5,21,48.854898095789295,2.4186685681343083,2021-05-04 09:33:34
27415665,Jean Jaurès - Salvador Allende,1,1,41,48.821475594736775,2.3026576638221745,2021-05-04 09:31:43
593238093,Victoire - Chaussée d'Antin,14,10,0,48.875065791004396,2.3316738009452824,2021-05-04 09:34:42
102331767,Victor Hugo - Galliéni,7,2,20,48.83802015441127,2.2460845112800603,2021-05-04 09:34:57
1062671597,Cossonnerie - Sébastopol,13,4,2,48.86132665908402,2.349419631063938,2021-05-04 09:34:41
37791,Richard Lenoir - Jean-Pierre Timbaud,21,1,13,48.86580427668637,2.369337074966926,2021-05-04 09:33:21
50156117,Legendre - Dulong,1,0,22,48.885325169402904,2.316423766314984,2021-05-04 09:33:03
35908,Cujas - Saint-Michel,11,3,5,48.84819134858432,2.34183165485398,2021-05-04 09:27:06
15462236,Galilée - Kléber,4,7,20,48.86741186571367,2.290781380114821,2021-05-04 09:33:00
1765749389,Karl Marx,0,0,16,48.784527937293184,2.3646667979455587,2021-05-04 09:34:41
210744286,Chemin Vert - Saint-Maur,8,0,15,48.86112461407359,2.381299026310444,2021-05-04 09:34:07
101024234,Quai Panhard et Levassor,30,1,26,48.82837482809675,2.384273745805574,2021-05-04 09:33:23
213992316,Square du Théâtre du Garde-Chasse,0,1,48,48.881287375060616,2.420119643211365,2021-05-04 09:31:40
213694482,Botzaris - Parc des Buttes Chaumont,0,1,19,48.877951,2.381464,2021-05-04 09:32:54
39799329,Faubourg Montmartre - La Fayette,9,4,21,48.87525454905335,2.340853661298752,2021-05-04 09:35:15
129011497,Rochechouart lamartine,0,5,17,48.876719895109,2.344393021853951,2021-05-04 09:34:10
101743895,Joseph Liouville - Croix Nivert,10,3,50,48.844835471244416,2.297508493065834,2021-05-04 09:34:01
213691848,Place Madeleine Daniélou,3,0,39,48.883498,2.282015,2021-05-04 09:34:02
210396518,Estrapade - Ulm,5,8,3,48.84512772828039,2.3454568170361734,2021-05-04 09:33:06
97677210,Parmentier - République ,4,1,42,48.8644954,2.3750124,2021-05-04 09:31:42
875078767,Lieutenant Chauré - Etienne Marey,0,1,19,48.86746195408435,2.405970990657807,2021-05-04 09:25:31
213683992,Cauchy - Cévennes,20,1,29,48.8433725710224,2.275132834911347,2021-05-04 09:34:28
102338493,Larmeroux - Baudelaire,1,2,27,48.816939911291605,2.280989480484553,2021-05-04 09:32:27
54000601,Jean-François Lépine - Stephenson,0,0,22,48.88611466796807,2.356855627529275,2021-05-04 09:34:05
27362896,Beffroy,5,6,13,48.886591074487995,2.261394560337067,2021-05-04 09:32:27
213687140,Molitor - Chardon-Lagache,11,5,17,48.84520880183234,2.2656840831041336,2021-05-04 09:34:55
235599121,Général De Gaulle - Alouette,1,0,25,48.839109,2.4175664,2021-05-04 09:32:53
213680917,Abbé Carton - Plantes,1,0,24,48.827673823165846,2.320918142795563,2021-05-04 09:34:33
1057774603,Marie-Georges Picquart - Pereire,5,1,26,48.88863669349711,2.3111706599593163,2021-05-04 09:32:55
213688462,Sablons - Georges Mandel,0,8,30,48.863875,2.28189,2021-05-04 09:32:26
102749572,Gare RER de Vincennes,27,13,4,48.847563015126106,2.433383166790009,2021-05-04 09:33:00
549876068,Villette - Belleville,2,4,41,48.872687731400255,2.3764613270759587,2021-05-04 09:30:42
390212609,Théophile Gautier - François Millet,15,1,14,48.85034821320644,2.273029983043671,2021-05-04 09:35:05
63498079,Marché Secrétan,1,3,20,48.88125496379482,2.373463287949562,2021-05-04 09:34:16
210573120,Hoche - Tilsitt,1,14,18,48.87483645783703,2.297132313251496,2021-05-04 09:34:08
39254792,Mairie du 11ème,29,7,12,48.858925,2.3789759,2021-05-04 09:33:37
1558958733,Arche - Léonard de Vinci,6,5,14,48.89790972494496,2.2383723043644914,2021-05-04 09:34:26
213936755,Edouard Vaillant - Galliéni,0,0,49,48.85846288166117,2.4147954583168034,2020-08-14 04:12:17
2515802454,Charles de Gaulle - Sablonville,2,3,20,48.87991924860035,2.2763770446181297,2021-05-04 09:31:20
648227675,Auguste Cain - Jean Moulin,1,3,35,48.82577028927573,2.3210415244102482,2021-05-04 09:31:45
42566291,Miromesnil - La Boétie,18,15,1,48.87372241291653,2.315848097205162,2021-05-04 09:34:38
1062206433,Chemin Vert - Fraternité,0,1,19,48.877141208359035,2.4461565166711807,2021-05-04 09:31:30
129032910,Marseille - Beaurepaire,12,5,35,48.871624306962985,2.3639265082738348,2021-05-04 09:35:00
237624030,Mathurins - Auber,13,11,12,48.872988840743595,2.3294984212276404,2021-05-04 09:35:10
647826568,Saint-Germain - Thenard,25,0,3,48.850571,2.3471015,2021-05-04 09:33:44
54000577,Arago - Glacière,11,0,15,48.83486054775774,2.3445770524322067,2021-05-04 09:32:15
54001024,Parmentier - Abel Rabaud,3,2,47,48.86921273836114,2.371688821240712,2021-05-04 09:33:13
94250567,Mairie d'Ivry-sur-Seine,38,4,10,48.81057120969284,2.3842826485633855,2021-05-04 09:34:50
129078200,Parc Georges Brassens - Brancion,1,2,26,48.83227829269761,2.3022570088505745,2021-05-04 09:29:17
649888071,Place Paul Eluard,8,4,6,48.7672039733195,2.4144977331161503,2021-05-04 09:33:40
82563707,Exelmans - Michel-Ange,3,0,27,48.84309486651855,2.2597770800669053,2021-05-04 09:34:41
129143598,Pierret - Madrid,5,1,21,48.882976576876565,2.260125767248034,2021-05-04 09:32:12
213690847,Reims - Raymond Pitet,1,0,36,48.8888,2.296319,2021-05-04 09:31:42
102333275,Saint-Vincent - Verdun,8,2,21,48.819211549234495,2.254007756710053,2021-05-04 09:32:26
640629438,Aristide Briand - Gare de Bagneux,2,1,16,48.79387269664978,2.321148812770844,2021-05-04 09:33:15
27415512,Parc Roger Salengro,6,1,28,48.905303858641844,2.310559451580048,2021-05-04 09:31:52
27363362,Seine - Flandre,9,3,7,48.886785741479684,2.3746193200349808,2021-05-04 09:32:05
210746090,Grand Prieuré - Crussol,5,1,43,48.86466062793517,2.369226553182906,2021-05-04 09:34:39
213957917,Wilson - Métallurgie,2,1,25,48.909423010092326,2.3584435880184174,2021-05-04 09:35:03
54000626,Madame de Sanzillon - Mozart,13,5,4,48.90379820774301,2.3187401890754704,2021-05-04 09:33:49
6399,Hautpoul - Jean Jaurès,1,0,30,48.88639367943585,2.386541454435452,2021-05-04 09:35:20
27414841,Square d'Anvers,0,0,34,48.882633484310816,2.344884406212207,2021-05-04 09:31:27
82253759,Mairie du 7ème,13,1,10,48.8577967,2.3192664,2021-05-04 09:33:07
82457375,Volontaire - Lecourbe,10,1,19,48.8435137879902,2.3065522313117985,2021-05-04 09:30:42
54000609,Laumière - Petit,5,6,22,48.88467368538326,2.380039058625698,2021-05-04 09:34:58
82328045,Victoria - Place du Chatelet,14,3,1,48.85799259152685,2.3469167947769165,2021-05-04 09:34:44
55664548,Charonne - Faubourg Saint-Antoine,18,6,6,48.85219190969573,2.3740932717919354,2021-05-04 09:34:50
214134714,Gare Arcueil - Cachan,4,4,17,48.799824,2.328171,2021-05-04 09:34:38
214139374,Gare RER de Gentilly,5,1,24,48.814280450380224,2.3410347104072575,2021-05-04 09:34:08
213702608,Boyer - Ménilmontant,0,0,19,48.86889516267913,2.3919824145634565,2021-05-04 09:34:29
559507144,Place Jean Ferrat,4,3,17,48.8184945213025,2.3744174838066106,2021-05-04 09:33:55
101740379,Boulard - Daguerre,2,0,42,48.83446472680611,2.3293386027216907,2021-05-04 09:32:11
213694069,Flandre - Alphonse Karr,6,3,17,48.89465,2.381868,2021-05-04 09:34:03
213700358,Villiers de l'Isle Adam - Pyrénées,0,0,20,48.867362,2.396222,2021-05-04 09:26:12
653063170,Place de la Porte de Paris,10,5,21,48.93009363207303,2.3564037680625916,2021-05-04 09:33:45
3906215030,Place Amédée Gordini - Lefebvre,2,2,34,48.83061737745046,2.2920634208276174,2021-05-04 09:32:56
468843711,Saint Georges - d'Aumale,1,0,22,48.87778639599673,2.337429821491241,2021-05-04 09:26:32
129151834,Stalingrad - Désiré Chevalier,3,5,29,48.85670169739857,2.445072233676911,2021-05-04 09:35:21
237041013,Saint-Jacques - Soufflot,6,10,1,48.8465255,2.343099,2021-05-04 09:34:02
54000553,Marignan - Champs-Elysées,7,8,5,48.869495661232406,2.306613813900307,2021-05-04 08:17:32
653200142,Hôtel de Ville de Nanterre,9,1,27,48.892371898250424,2.205548956990242,2021-05-04 09:35:05
650091839,Victor Hugo - Ecoles,5,9,11,48.80476007936134,2.4180373930262093,2021-05-04 09:34:01
362869414,Hôpital Bégin,16,4,2,48.84571672113014,2.4272462725639348,2021-05-04 09:34:29
49859500,Charenton - Diderot,10,0,7,48.84617146118711,2.3793068155646324,2021-05-04 09:35:22
100859941,Raspail - Bac,28,8,12,48.855628721100935,2.3256602883338933,2021-05-04 09:34:27
49368561,Jules Ferry - Faubourg du Temple Paris,29,3,23,48.868397,2.3678933,2021-05-04 09:35:20
42743053,Stephenson - Doudeauville,0,1,35,48.888537048944826,2.3561610281467438,2021-05-04 09:30:04
213699913,Place de l'Édit de Nantes,10,0,19,48.88879,2.3785,2021-05-04 09:35:16
4329844165,Tristan Tzara -  Tchaïkovski,3,0,30,48.89490221746837,2.3648490384221077,2021-05-04 09:29:00
378626842,Anatole France - Louise Michel,1,2,47,48.88873214926474,2.2881576418876652,2021-05-04 09:34:44
478952881,Boulets - Voltaire,8,6,10,48.85218705621031,2.389030158519745,2021-05-04 09:34:38
933214552,Guynemer - Séverine ,18,1,4,48.83091743371036,2.2790706530213356,2021-05-04 09:32:32
39217683,Alfred Roll - Berthier,1,0,28,48.88780857052871,2.30009529817631,2021-03-11 02:07:09
210090269,Jean Macé - Faidherbe,14,2,44,48.85337548425958,2.3828620836138725,2021-05-04 09:35:15
376664868,Gaston Roussel - Commune de Paris,5,3,20,48.89432034553156,2.432552274419542,2021-05-04 09:33:44
2515927759,Stalingrad - Germaine Tailleferre,5,1,21,48.80257200481316,2.3786691203713417,2021-05-04 09:34:27
205955605,Bienfaisance - Place de Narvik,16,13,7,48.87660163459077,2.3129771277308464,2021-05-04 09:34:20
27414945,Montgallet - Charenton,5,2,9,48.84264777870052,2.386164927813738,2021-05-04 09:33:23
38263504,Place Jacques Madaule,19,3,3,48.8239337873086,2.2606918215751652,2021-05-04 09:33:37
338824395,Bourse du Travail,8,4,4,48.868976638825686,2.362343855202198,2021-05-04 09:32:31
66491370,Jacques Callot - Mazarine,9,3,16,48.85528017533187,2.337574325501919,2021-05-04 09:35:05
66491392,Parmentier - Hôpital Saint-Louis,3,1,39,48.87137987425661,2.369896383666685,2021-05-04 09:34:36
353462947,Richard Wallace - Place du 8 Mai 1945,11,1,18,48.87866794788021,2.2420343756675725,2021-05-04 09:33:11
1559700274,Square Gilbert Thomain,2,3,14,48.90717373809284,2.2695400938391685,2021-05-04 09:31:24
250061205,Quai d'Orsay - Invalides,0,0,18,48.863096900140626,2.316989621020396,2021-01-23 13:02:41
338762459,Edouard Poisson - Victor Hugo,4,2,23,48.91113914952997,2.3792722821235657,2021-05-04 09:32:25
213688824,Faustin Hélie - Desbordes-Valmore,1,2,28,48.859403,2.276522,2021-05-04 09:34:17
82337423,Varenne,32,3,9,48.8572026618033,2.315277121961117,2021-05-04 09:35:11
66491404,Flandre - Riquet,4,2,13,48.888013281448345,2.373759595522922,2021-05-04 09:33:56
652120758,Place de la Porte de Châtillon,2,0,56,48.8242469,2.3186306,2021-05-04 09:32:44
501318622,Montreuil - Gonnet,1,1,20,48.85050056492107,2.389085628786445,2021-05-04 09:34:16
66491393,Dupleix - du Guesclin,19,1,25,48.85147910413369,2.296709530055523,2021-05-04 09:33:48
323486248,Montgallet - Reuilly,6,3,5,48.844291,2.3896481,2021-05-04 09:34:23
341388492,Place des Ternes,1,4,41,48.878438631226516,2.297727763652802,2021-05-04 09:31:15
1062223873,Ancien Canal - Hélène Brion,2,5,15,48.89484799296163,2.4188338592648506,2021-05-04 09:34:32
49085250,Departement - Pajol,0,2,17,48.886674849730184,2.3613611608743668,2021-05-04 09:33:56
376526598,Mairie des Lilas,1,2,44,48.8792834,2.4160182,2021-05-04 09:32:01
27071684,Porte de Vincennes,9,0,24,48.846454,2.415514,2021-05-04 09:35:01
2515907297,Pasteur - Gambetta,8,3,5,48.84572797384512,2.4236011505126953,2021-05-04 09:35:04
66491401,Fragonard - Porte de Clichy,17,4,35,48.89415563341899,2.314389310777188,2021-05-04 09:34:31
985828965,Place de Verdun,33,3,4,48.8202823,2.473775,2021-05-04 09:34:38
54000597,Bayen - Pereire,3,3,16,48.881804409079656,2.2921088710427284,2021-05-04 09:35:18
570185777,Gare de Courbevoie,0,1,33,48.8993867,2.2506506,2021-05-04 09:35:21
470807791,Jardin d'Acclimatation,9,2,21,48.878772242510465,2.270772233605385,2021-05-04 09:34:16
82445192,Gare Montparnasse - René Mouchotte,0,3,36,48.83920384329242,2.320883944630623,2021-05-04 09:32:57
2515658032,Clignancourt - Sofia,0,2,17,48.88511992309783,2.34719488842051,2021-05-04 09:33:55
568135465,Paul Vaillant Couturier - Chaptal,12,14,12,48.89347957618252,2.277525365352631,2021-05-04 09:34:09
567884788,Vincent Auriol - Louise Weiss,13,8,0,48.83400193550147,2.370388805866242,2021-05-04 09:35:06
214102967,Gare de Laplace,3,2,37,48.80893199114179,2.3349460959434514,2021-05-04 09:32:39
82417874,Alexandre Dumas - Voltaire,18,9,30,48.85288867036487,2.389147640809553,2021-05-04 09:32:47
102319838,Quai de la Loire - Jean Jaurès,1,3,10,48.88339733854529,2.371074522980134,2021-05-04 09:35:16
82423726,Gare de Lyon - Roland Barthes,52,6,10,48.84395729494058,2.3790882155299187,2021-05-04 09:33:40
652192395,Route de Sèvres - Porte de Bagatelle,21,3,38,48.87525984132485,2.249415814876557,2021-05-04 09:32:46
571923059,Bordier - Félix Faure,1,2,45,48.90390751882016,2.3830059170722966,2021-05-04 09:35:14
66491405,Charonne - Avron,0,1,25,48.85160266522164,2.398403047037931,2021-05-04 09:34:56
54000635,Félix Faure - Sadi Carnot,12,2,19,48.90812110228388,2.378623187541962,2021-05-04 09:35:03
54000544,Jussieu - Fossés Saint-Bernard,28,3,4,48.84718551002347,2.3534858599305153,2021-05-04 09:34:36
1062179194,18 juin 1940 - Buzenval,1,2,21,48.868807,2.185428,2021-05-04 09:30:07
1063017616,Mairie de La Garenne Colombes,0,3,19,48.90663823468682,2.24679596722126,2021-05-04 09:34:19
378648513,Jean Colly - Tolbiac,1,0,34,48.827817291597846,2.3705490678548813,2021-05-04 09:35:13
27278603,Porte de la Villette,5,0,22,48.89835196548483,2.386150136590004,2021-05-04 09:33:54
13497763,Ouest - Château ,0,0,23,48.83617286014242,2.319392143923804,2021-05-04 09:32:27
653042442,Place aux Étoiles,3,8,28,48.91835629408464,2.3523425683379173,2021-05-04 09:33:01
49807107,Flandrin - Henri Martin,0,1,16,48.8643275,2.2724174,2021-05-04 09:29:28
82450803,Square Cambronne,24,5,28,48.847566545259745,2.3025691509246826,2021-05-04 09:35:07
210747224,Pirogues de Bercy - Libourne,26,6,17,48.832308,2.38637,2021-05-04 09:35:22
210568512,Assemblée Nationale,26,11,18,48.86141101465194,2.320121418520769,2021-05-04 09:34:38
213691542,Porte Maillot - Pereire,8,7,37,48.877775,2.284444,2021-05-04 09:34:30
357409723,Place Violet,14,0,16,48.84487893836502,2.2905756533145905,2021-05-04 09:35:21
2515855808,Madeleine Vionnet,11,19,2,48.90251907406377,2.37408958375454,2021-05-04 09:34:12
384370499,Place Charles Vallin,10,2,12,48.83552381204077,2.302598655223847,2021-05-04 09:34:22
49403716,Commandant Rivière,21,5,1,48.872933,2.309796,2021-05-04 09:35:17
85165045,Place Jean-Baptiste Clément,3,4,18,48.81240466867336,2.3617091774940495,2021-05-04 09:30:37
27363103,Porte d'Auteuil,2,1,28,48.8479394142243,2.2608396783471107,2021-05-04 09:28:47
27415179,Sarrette - Général Leclerc,2,1,19,48.82503085292528,2.326412869398186,2021-05-04 09:33:04
54000571,Dugommier,5,2,43,48.8388110488154,2.38965779542923,2021-05-04 09:35:19
85145704,Réunion - Avron,1,0,23,48.852566752033766,2.403928068708116,2021-05-04 09:27:20
653044270,Claude Bernard - Arbalète,1,1,14,48.83976676978202,2.347510904073715,2021-05-04 09:34:33
26958435,Square des Saint-Simoniens,0,1,24,48.8701796,2.3967273,2021-05-04 09:30:10
6385,Petit - Manin,8,2,11,48.88650687534334,2.3938155401308374,2021-05-04 09:34:14
213857398,Gare de Clamart,0,2,11,48.81383535598703,2.272278964519501,2021-05-04 09:25:43
82550925,Place des Marseillais,12,1,21,48.82663907252554,2.4059280753135686,2021-05-04 09:32:28
27363096,Charenton - Wattignies,2,1,30,48.83667579640627,2.391795855555629,2021-05-04 09:32:54
210753033,Gare d'Austerlitz,2,0,11,48.842524,2.364044,2021-05-04 09:33:38
129119449,Ménilmontant - Pelleport,0,1,18,48.87068263384462,2.398959602331646,2021-05-04 09:28:51
475524450,Chanzy - Sud-Est,1,1,23,48.888912037698766,2.195632159709931,2021-05-04 09:33:31
653048150,Jussieu - Guy de la Brosse,26,12,2,48.845665,2.355653,2021-05-04 09:33:15
244400797,Jean Lolive - Parc Stalingrad,5,6,12,48.89206174403158,2.4091735482215886,2021-05-04 09:33:52
213922790,Champeaux - Gallieni,2,5,43,48.864459134684644,2.4161778017878532,2021-05-04 09:26:02
129001431,Courcelles - Place des Ternes,2,0,29,48.878199928923124,2.2992860188665043,2021-05-04 09:31:18
2515618216,Longchamp - Suresnes,0,0,0,48.86300828622305,2.240828142726961,2019-10-10 10:57:21
473204291,Victor Hugo - Magasins Généraux,6,2,22,48.903281401126755,2.368072383105755,2021-05-04 09:32:30
653203262,Parc Pierre Lagravère,8,3,18,48.92650488131725,2.239069678491417,2021-05-04 09:34:12
406806401,Guichet - Jean Jaurès,6,1,21,48.905169868129036,2.3023840785026555,2021-05-04 09:33:28
85143075,Evariste Galois,11,0,19,48.87308753734472,2.4133380129933357,2021-05-04 09:31:35
1063035479,Parvis Robert Schuman - Roger Salengro,3,3,15,48.812657470558754,2.1921751275658607,2021-05-04 09:28:06
82571110,Verdun - Place Henri IV,0,5,20,48.870797375639214,2.2277003154158592,2021-05-04 09:34:59
27399735,Ernest Renan - Parc des Expositions,5,7,33,48.83089757010408,2.2853584215044975,2021-05-04 09:32:19
54000582,Edgar Quinet - Gaité,1,2,23,48.84116092896631,2.32459545135498,2021-05-04 09:34:02
217235307,Place Carnot,0,1,24,48.85593932186797,2.441531717777252,2021-05-04 09:33:39
210748575,Gravelle - Route du Bac,12,0,39,48.824407,2.418455,2021-05-04 09:34:42
214123470, Place Léon Gambetta,4,2,20,48.81461250235386,2.4029293656349187,2021-05-04 09:35:22
129086648,Ceinture du Lac Inferieure - Saint-Cloud,2,1,39,48.86218070933143,2.2617871686816216,2021-05-04 09:27:52
217572769,Anatole France - Jean Lolive,6,6,15,48.8949922,2.4253764,2021-05-04 09:32:02
214298601,Boyer-Barret - Raymond Losserand,7,1,14,48.83329880233322,2.3173383995890617,2021-05-04 09:26:50
129125489,Piat - Parc de Belleville,0,1,20,48.87195626635528,2.384981390278095,2021-05-04 09:30:37
653046029,Place Valhubert,10,6,18,48.844182577315166,2.3640366643667217,2021-05-04 09:34:29
214122655,Lagny - Joffre,5,3,20,48.84930687084088,2.417949736118317,2021-05-04 09:35:03
15461933,Parc Monceau,5,0,12,48.88107791412864,2.3095492646098137,2021-05-04 09:35:21
43155320,Porte d'Orléans,5,1,42,48.8227639,2.3249313,2021-05-04 09:33:26
82458977,Place Falguière,1,1,21,48.83629973941847,2.3104464635252953,2021-05-04 09:34:59
214146056,Vignerons - Minimes,6,3,16,48.841486,2.430793,2021-05-04 09:27:59
129077035,Emeriau - Place de Brazzaville,42,3,3,48.850785261674964,2.2871585190296173,2021-05-04 09:35:14
221047138,Pierre et Marie Curie - Julien Grimau,0,0,18,48.870714014863225,2.424097023904324,2021-05-04 09:25:27
35196898,Gare d'Austerlitz - Quai Saint-Bernard,9,2,16,48.84369030863996,2.3657163977622986,2021-05-04 09:34:15
15308782,Sommerard - Saint-Jacques,11,1,18,48.850310432924466,2.345015835298588,2021-05-04 09:35:09
216473073,Tardieu - Chappe,0,0,18,48.88414675978186,2.3418454080820084,2021-05-04 09:27:20
37521,Petites Ecuries - Faubourg Poissonnière,10,4,3,48.87397217237368,2.348388757504776,2021-05-04 09:33:02
82421994,Gare de Bercy,16,2,17,48.839794573905685,2.382606603205204,2021-05-04 09:32:30
27033125,Pierre Ginier - Clichy,0,1,15,48.8867667,2.326228,2021-05-04 09:34:52
215495494,Batignolles - Place de Clichy,1,1,44,48.88347453575669,2.326493114233017,2021-05-04 09:34:55
129103849,Francoeur - Marcadet,0,1,19,48.89104123261663,2.340014585442034,2021-05-04 09:34:14
1057009034,Henri Chevreau - Couronnes,0,3,24,48.87033205312931,2.388777695596218,2021-05-04 09:32:11
82334007,Pascal - Claude Bernard,11,2,32,48.839061952159746,2.3499782010912895,2021-05-04 09:35:12
85008390,Grenelle - Dr Finlay,0,0,71,48.851315406715976,2.2919502854347233,2021-03-29 09:17:46
2515976231,Université,2,4,11,48.901365,2.212693,2021-05-04 09:34:01
216039437,Lamennais - Washington ,6,5,15,48.87352990026496,2.303444892168045,2021-05-04 09:34:21
129130397,Pierre Grenier - Pont de Billancourt,17,2,1,48.8258020742942,2.2487989068031315,2021-05-04 09:27:26
54000634,Bineau - Louise Michel,4,4,16,48.88666162206972,2.2843274474143986,2021-05-04 09:33:36
419381597,Professeur René Leriche - Général Leclerc ,21,15,13,48.90782845483013,2.307887971401215,2021-05-04 09:35:03
434419150,Bara - Henri Farman,21,4,9,48.833218027457846,2.2677567601203923,2021-05-04 09:34:09
54000548,Quai Voltaire,10,8,9,48.85894298617901,2.331418204714572,2021-05-04 09:34:07
54000595,Navier - Epinettes,0,0,34,48.89587780769155,2.3226776719093327,2021-05-04 09:32:51
426772876,Ledru-Rollin - Charonne,13,3,11,48.85345855607243,2.3772463581947094,2021-05-04 09:34:49
74620630,Parc de Belleville - Julien Lacroix,1,1,24,48.8703459,2.3842214,2021-05-04 09:33:56
653129412,Vladimir Ilitch Lénine - Andrée Chedid,3,1,24,48.813199499999044,2.3321458697319035,2021-05-04 09:28:12
129095489,Batignolles - Abel Truchet,1,1,26,48.88310390458221,2.323834749088381,2021-05-04 09:28:33
82421013,Charenton - Place du Col Bourgoin,20,3,11,48.84486731955409,2.382578935054453,2021-05-04 09:34:40
213686196,Lauriston - Copernic,0,0,19,48.86926,2.289918,2021-01-08 06:44:26
129134084,Morice - Général Leclerc,0,0,25,48.90245471981591,2.3128929734230046,2021-05-04 09:32:02
129036192,Gare de l'Est - Verdun,2,2,9,48.87615605427147,2.360914908320552,2021-05-04 09:32:22
210754072,Place Jean Delay,4,1,29,48.823316,2.354336,2021-05-04 09:34:36
419991048,Pont de Levallois-bécon ,10,2,38,48.8984179,2.2791311,2021-05-04 09:32:57
2820744873,Pierre Larousse - Raymond Losserand,6,3,20,48.83059564231877,2.3119183257222176,2021-05-04 09:33:07
213676825,Pitié-Salpêtrière,31,14,2,48.83748810318667,2.365213818848133,2021-05-04 09:35:00
15299574,Charles Delescluze,6,3,36,48.85242200848887,2.380632497370243,2021-05-04 09:30:17
41566122,Vasco de Gama,13,5,33,48.83671783466264,2.283664085650799,2021-05-04 09:35:21
963786819,Jonquoy - Didot,1,1,29,48.82890454823947,2.31648076325655,2021-05-04 09:32:11
427678168,Lucien Sampaix - Récollets,0,2,42,48.874330377560476,2.3621229082345963,2021-05-04 09:26:21
976762284,Place du Général de Gaulle,7,5,15,48.8525288,2.4877332,2021-05-04 09:34:19
129091653,Gare de Pont-Cardinet,1,1,32,48.88713901475306,2.314494143994255,2021-05-04 09:35:11
27414601,Saint-François-Xavier,26,4,7,48.851544847689894,2.3146149516105656,2021-05-04 09:33:33
252339799,Edouard Vaillant - Paul-Adolphe Souriau,11,3,11,48.83484585882868,2.2479459643363957,2021-05-04 09:32:42
224589573,Michelet - Assas,6,2,10,48.84274150283194,2.335021197795868,2021-05-04 09:31:12
220502135,Porte Dorée,4,8,24,48.8354337,2.4077132,2021-05-04 09:35:00
1805401614,Sèvres-Gallieni,15,2,8,48.83780940895712,2.2281519323587418,2021-05-04 09:35:01
129114993,Belleville - Porte des Lilas,2,2,27,48.87660391892763,2.404769691129476,2021-05-04 09:35:06
129124069,Haxo - Surmelin,0,0,21,48.8694370761222,2.40539657537972,2021-05-04 09:32:24
221041655,Porte de Clignancourt,0,1,54,48.897488,2.343996,2021-05-04 09:29:20
129061615,Primo Levi - Frigos,21,6,6,48.83094844846017,2.37965351592796,2021-05-04 09:35:19
221094844,Place Alphonse Deville,7,5,7,48.85018826266191,2.3275961726903915,2021-05-04 09:34:45
220726050,Mézières - Rennes ,6,5,43,48.85023459321703,2.3303819820284843,2021-05-04 09:35:21
254224239,Place Adolphe Cherioux - Vaugirard,1,3,58,48.83959442800459,2.3010657727718353,2021-05-04 09:35:06
252301607,Charles de Gaulle - Madrid,9,6,4,48.884432270367995,2.2608044743537907,2021-05-04 09:33:33
129116697,Tanger - Place du Maroc,0,2,17,48.8862524447104,2.3689296841621403,2021-05-04 09:34:51
977409509,Vincennes - Douy-Delcupe,4,2,31,48.85493692155721,2.436049282550812,2021-05-04 09:30:06
653055049,Place du Cornillon - Stade de France,7,2,23,48.92540695835961,2.3644426837563515,2021-05-04 09:34:18
1057769632,Porte de Saint-Ouen - Henri Huchard,11,10,5,48.898708366365064,2.3295360803604126,2021-05-04 09:34:04
1333959209,Génie - Mozart,3,1,15,48.794902381218904,2.3734183609485626,2021-05-04 09:35:18
213690256,Place du Maréchal Juin - Péreire,0,2,44,48.885263,2.298286,2021-05-04 09:35:08
476183970,Gare de l'Est - Place du 11 Novembre 1918,4,1,35,48.876327,2.3585464,2021-05-04 09:34:31
632007124,Lucie Aubrac - Franklin,1,4,31,48.86223916006812,2.4435862898826604,2021-05-04 09:32:40
977206088,Hôtel de Ville d'Argenteuil,4,6,20,48.946504,2.2496396,2021-05-04 09:34:42
213868408,Gare Routière de Saint Cloud,14,1,15,48.84288183896324,2.222245037555695,2021-05-04 09:35:19
84986959,Bastille - Biscornet,35,8,19,48.851355779578945,2.369220033288002,2021-05-04 09:34:33
43165673,Belfort - Voltaire,6,1,30,48.8563358,2.3829901,2021-05-04 09:34:49
82381710,Batignolles - Rome,2,3,8,48.881823370566806,2.3202589899301524,2021-05-04 09:30:53
224598098,Dunois - Clisson,11,1,37,48.832294,2.3674523,2021-05-04 09:34:06
10968855,Colonel Monteil - Brune,1,1,16,48.8265029331101,2.30927479982717,2021-05-04 09:35:23
82508970,Verdun - Adrien Damalix,10,2,14,48.8222334178559,2.4215328320860863,2021-05-04 09:25:39
653055097,Milton - Manuel,0,0,22,48.878249,2.341181,2021-05-04 09:25:42
221038698,Mahatma Gandhi,14,0,9,48.876356,2.264205,2021-05-04 09:34:12
27246227,Edouard Pailleron - Simon Bolivar ,1,0,23,48.87979886049996,2.374839261174202,2021-05-04 09:33:51
63297,Eglise d'Auteuil,10,0,10,48.84749841771691,2.26848387135299,2021-05-04 09:32:40
213692714,Lepic - Armée d'Orient,0,1,23,48.88753640381415,2.334307730197907,2021-05-04 09:32:52
95927849,Jean Jaurès - Jean Baptiste Clément ,18,6,0,48.84576261454011,2.2369650006294255,2021-05-04 09:33:16
102341385,Château - Bineau,11,1,9,48.890404028589806,2.270106375217438,2021-05-04 09:32:50
27415327,Courcelles - Pierre Demours,3,2,21,48.883769733273496,2.29858466343129,2021-05-04 09:31:15
54000605,Mairie du 18ème,0,0,40,48.892939296937605,2.3445510864257812,2021-05-04 09:34:43
979059925,Bridaine - Lamandé,1,1,27,48.8862074,2.3206239,2021-05-04 09:30:31
6512,Porte de Ménilmontant,0,1,14,48.8691543609174,2.40932246879487,2021-05-04 09:34:34
27363323,Laffitte - Italiens,20,13,0,48.871815737396304,2.337201547845077,2021-05-04 09:34:47
85118872,Indre - Prairies,0,0,38,48.86254398506782,2.403290458023548,2021-05-04 09:33:57
253357936,Félix Faure - Lourmel,43,0,14,48.83868901709515,2.2818081825971603,2021-05-04 09:34:55
102289046,Lourmel - Marie Skobtsov,12,1,9,48.844974,2.287283,2021-05-04 09:34:10
124402232,Belleville - Télégraphe,0,4,37,48.8756045,2.3995549,2021-05-04 09:33:51
985086307,Gare d'Asnières sur Seine,13,3,7,48.90636459217474,2.2835066914558415,2021-05-04 09:35:15
984663789,Faubourg St-Antoine - Place de la Nation,3,3,27,48.8487659,2.3940436,2021-05-04 09:34:14
100798076,Danton - Serpente,10,4,6,48.85229736258167,2.3414132371544834,2021-05-04 09:32:31
15298647,Temple - Jean-Pierre Timbaud,6,1,27,48.864465972010244,2.3660597205162053,2021-05-04 09:35:16
1063404053,République - Danton,0,1,19,48.85249172181667,2.462034523487091,2021-05-04 09:28:38
82577019,Cité des Sciences et de l'Industrie,6,0,22,48.89659571178903,2.384599149227142,2021-05-04 09:31:18
76199110,Université Paris Dauphine,0,0,0,48.870707839985386,2.2748656198382378,2021-02-11 10:14:41
54000598,Mac-Mahon - Brey,2,3,20,48.877532084130166,2.294512536052928,2021-05-04 09:35:17
2515829865,Basilique,9,2,9,48.93626891059109,2.3588666820200914,2021-05-04 09:33:23
989753852,Square des Epinettes,2,2,16,48.89383909781389,2.325953990221024,2021-05-04 09:32:43
990000217,Les Planètes ,9,2,5,48.8099849920804,2.4580853059887886,2021-05-04 09:25:39
121025345,Chabrol - d'Hauteville,2,4,5,48.87701838803332,2.3513179644942284,2021-05-04 09:35:09
39256416,Pajol - Riquet ,2,3,41,48.88960028134536,2.3628534749150276,2021-05-04 09:35:23
255207155,Lassus - Delouvain,0,1,17,48.87550448459959,2.3890327325518528,2021-05-04 09:30:42
63769334,Emile Blemont - Poteau,0,1,38,48.8943782,2.3415122,2021-05-04 09:34:12
129136818,Square du Carrefour de l'Insurrection,0,1,22,48.820864559770676,2.291113436222077,2021-05-04 09:29:53
98132679, Jean Bleuzen - Square du 11 Novembre,0,3,44,48.8232579,2.2965213,2021-05-04 09:32:05
27415469,Orteaux - Mouraud,0,1,23,48.85558642847872,2.408762907764669,2021-05-04 09:29:08
39599631,François Ponsard - La Muette ,0,1,22,48.8583666,2.2744515,2021-05-04 09:32:04
84979504,Provence - Chaussée d'Antin,8,4,13,48.87428447542072,2.332976511564311,2021-05-04 09:32:21
82404497,Ledru-Rollin - Place du Père Chaillet,14,0,24,48.856433706943704,2.379020587761426,2021-05-04 09:34:43
37936869,Assas - Vaugirard,10,8,15,48.848274111397586,2.3292413726449013,2021-05-04 09:33:12
85120104,Pelleport - Belgrand,0,0,15,48.86500081847653,2.403980836377493,2021-05-04 09:29:16
54000604,Ordener - Poissonniers,1,0,34,48.891213890844654,2.351288666219873,2021-05-04 09:32:54
101748685,Place Etienne Pernet,7,1,32,48.84243457133779,2.2921819612383847,2021-05-04 09:34:33
3230175424,Place de la République,4,3,19,48.852988,2.42467,2021-05-04 09:34:14
54000608,Porte d'Aubervilliers,8,1,47,48.89859661942376,2.3689722642302513,2021-05-04 09:35:10
653080986,Toffier Decaux - Cartier Bresson,3,2,9,48.90165072551549,2.4017545580863957,2021-05-04 09:29:56
102743096,Sadi Carnot - François Mitterrand ,0,2,25,48.87532687671517,2.4241617321968083,2021-05-04 09:25:27
653059015,Bellefond - Maubeuge,0,0,31,48.878255397644715,2.345264218747616,2021-05-04 09:32:11
126175087,Gabrielle Josserand - Edouard Vaillant,11,1,13,48.90271566255436,2.3933270573616032,2021-05-04 09:32:34
101746493,Théâtre - Lourmel,35,0,16,48.8482070397636,2.2898658737540245,2021-05-04 09:35:15
27363137,Hameau Fleuri - Marché,14,1,5,48.831448892608314,2.2412404417991643,2021-05-04 09:31:54
339797666,Charles de Gaulle - Jean Lolive,3,0,23,48.8932644350857,2.4126765131950383,2021-05-04 09:33:02
1968156458,Ecole Vétérinaire,20,5,7,48.81488859822486,2.4224362157778994,2021-05-04 09:32:12
255212362,Porte de Versailles,13,9,2,48.83215381734912,2.2871491312980647,2021-05-04 09:35:22
66491394,Square Saint-Ambroise,0,0,43,48.860934,2.375841,2021-04-25 21:38:12
991351798,Aubervilliers - Curial,5,3,15,48.89088305227546,2.3688579350709915,2021-05-04 09:35:14
7304,Bassano -  Iéna,2,4,7,48.868144510482075,2.296149600985935,2021-05-04 09:20:48
54000592,Balard - Montagne de la Fage,28,4,4,48.83850740333351,2.2782871127128606,2021-05-04 09:30:49
54000572,Diderot - Pierre Bourdan,6,1,14,48.84764862079675,2.3902582749724393,2021-05-04 09:35:16
624177860,Route de la Muette - Porte de Neuilly,3,4,41,48.8798926,2.2587671,2021-05-04 09:35:09
15409531,Méchain - Faubourg Saint-Jacques,9,6,1,48.83586772099485,2.33798034198275,2021-05-04 09:30:39
29327,Stade Auguste Delaune,10,3,6,48.80896378683884,2.4345204234123234,2021-05-04 09:26:54
125469898,Square Léon,0,2,31,48.88667396788626,2.353205569088459,2021-05-04 09:27:57
36298,Jean-Baptiste Pigalle - La Bruyere,0,3,14,48.87939826447722,2.333709173337285,2021-05-04 09:25:47
37903195,Transvaal - Charles de Gaulle ,22,2,1,48.848280403628806,2.2373420120857195,2021-05-04 09:33:29
102313219,Belliard - Damrémont,1,0,33,48.89669238777841,2.338023450388167,2021-05-04 09:35:21
100906707,Boulets - Faubourg Saint-Antoine,4,2,37,48.84925926211519,2.391754614194301,2021-05-04 09:32:38
15387809,Mozart - Jasmin,1,0,61,48.85286124871689,2.268483570651513,2021-05-04 09:31:51
66491407,Haies - Réunion,1,1,18,48.85386896766491,2.402426162238911,2021-05-04 09:30:22
27369223,Maine - Antoine Bourdelle,0,1,15,48.84308531746595,2.320263946784738,2021-05-04 09:33:01
102336814,Kléber - Gouverneur Général Eboué,11,5,0,48.826885843069796,2.2723413258790965,2021-05-04 09:32:38
484423835,Président Wilson - Jean Jaures,6,3,17,48.89034054052266,2.2920683026313786,2021-05-04 09:32:22
54000618,Pyrénées - Maraîchers,0,0,18,48.85714001395299,2.4043509364128113,2021-05-04 09:33:20
653059879,Gare RER de Saint-Denis,4,4,30,48.93554324248177,2.3471488058567047,2021-05-04 09:34:12
100918666,Place Pasdeloup,6,1,12,48.86265421563133,2.3670325062844237,2021-05-04 09:34:38
653050378,Square René Viviani - Montebello,10,2,20,48.851904891406384,2.347842156887055,2021-05-04 09:33:56
84966359,Naples - Rome,2,3,21,48.879960700846226,2.321358695626259,2021-05-04 09:34:15
15291968,Place de Passy,0,2,13,48.85780291711202,2.277500546942199,2021-05-04 09:31:11
210583589,Place Jacques Bonsergent,3,1,27,48.870948218595146,2.3612049221992497,2021-05-04 09:30:34
1002059045,Pont Neuf - Rivoli,10,9,3,48.86008989261731,2.344057559967041,2021-05-04 09:35:12
1002738770,Lavandieres Sainte Opportune - Rivoli,15,6,6,48.85927970247607,2.3466217517852783,2021-05-04 09:33:08
100863462,Musée d'Orsay,41,3,18,48.85972615790874,2.325860448181629,2021-05-04 09:33:22
126354477,Clichy - Place Blanche,0,2,16,48.883601088297006,2.333223782479763,2021-05-04 09:30:43
213987795,Wilson - Landy,5,3,31,48.91516726221354,2.357633225619793,2021-05-04 09:33:00
15397468,Maison de Radio - France,30,2,10,48.85132886434057,2.277785539627075,2021-05-04 09:34:19
129101773,Caulaincourt - Place Constantin Pecqueur,0,1,43,48.8896779050281,2.33817871442611,2021-05-04 09:32:28
37647,Gare du Nord - Dunkerque,0,5,22,48.88042350842878,2.3527636751532555,2021-05-04 09:34:32
42908639,Lallier - Trudaine ,0,2,27,48.88109246617963,2.3408224806189537,2021-05-04 09:32:32
6298,Gare du Nord - Saint-Vincent de Paul,1,8,15,48.88095574164779,2.352430514838522,2021-05-04 09:33:17
42499285,Petit Palais,12,0,30,48.8667692,2.3157655,2021-05-04 09:29:55
213952930,Proudhon - Président Wilson,3,1,26,48.90644276349534,2.3584905266761784,2021-05-04 09:34:43
54000549,Villersexel - Saint-Germain,7,4,3,48.858297001217615,2.323793470859528,2021-05-04 09:29:57
85162552,Fontainebleau - Edmond Michelet,5,2,37,48.80956436844049,2.3626908659935,2021-05-04 09:33:52
2515738489,Eugène Reisz - Davout,0,1,19,48.85631874632638,2.410396970808506,2021-05-04 09:28:22
52329,Chernoviz - Raynouard,0,2,32,48.8569864146289,2.282173218142987,2021-05-04 09:32:33
256561528,Eugène Oudiné - Dessous Des Berges,27,5,10,48.8256423,2.3750226,2021-05-04 09:34:33
452920451,Mont Valérien - Michel Salles,1,2,19,48.8561915,2.2152966,2021-05-04 09:30:20
37920,Traversière - Ledru-Rollin,10,3,21,48.850735824128805,2.375870111706245,2021-05-04 09:35:13
54000621,Ménilmontant - Père Lachaise,3,8,45,48.86328729150227,2.3869940266013145,2021-05-04 09:34:31
54000588,Gare Montparnasse - Vaugirard,1,4,59,48.8418071798797,2.31951002690117,2021-05-04 09:34:58
1020700136,Neuve Saint-Pierre - Beautreillis,14,5,1,48.85355351439652,2.3639122769236565,2021-05-04 09:30:38
100855693,Sabot - Rennes,13,1,8,48.852575112948415,2.331552766263485,2021-05-04 09:35:16
9931940126,Diane Arbus,2,0,35,48.898800717199,2.3524022474884987,2021-05-04 09:30:55
54000586,Pernety - Raymond Losserand,1,1,30,48.83425462795304,2.317609339386963,2021-05-04 09:32:06
102304517,Pereire - Place de Wagram,2,1,42,48.887070607581215,2.304111124531457,2021-05-04 09:31:34
128889359,Champ de Mars - Cler,23,6,4,48.856691550115315,2.306646779179573,2021-05-04 09:30:59
54000546,Sénat - Condé,10,10,12,48.84954227788459,2.337939441204071,2021-05-04 09:33:39
129042700,Granges aux Belles - Hôpital Saint-Louis,13,14,30,48.874794994841274,2.366669436984963,2021-05-04 09:32:53
101761298,Place du Moulin de Javel,28,13,4,48.84021670922037,2.2716060653328896,2021-05-04 09:33:34
27364581,Parc de Choisy,2,3,19,48.828156251574946,2.358513532903332,2021-05-04 09:29:49
210737808,Aqueduc - Villette,1,4,22,48.883886063895396,2.36719880331497,2021-05-04 09:34:34
256124192,Belleville - Pyrénées,1,0,41,48.8741908,2.3860039,2021-05-04 09:27:16
653127524,Gustave Eiffel - Parc des Impressionnistes,16,0,14,48.90390619651018,2.2946908324956894,2021-05-04 09:32:31
2515686699,Borrégo - Gambetta,1,0,24,48.87330497045532,2.4014145880937576,2021-05-04 09:29:27
912377361,Diderot - Reuilly,10,3,30,48.84720845606067,2.3861273378133774,2021-05-04 09:33:16
35137730,Hôpital Pitié Salpêtrière,18,9,23,48.8377016,2.3604946,2021-05-04 09:34:38
259977414,Palais des Sports,9,6,5,48.83346851742578,2.2858720645308495,2021-05-04 09:34:45
88235134,Alésia - Suisses,0,1,46,48.831682520717614,2.3149869226003754,2021-05-04 09:30:59
66491408,Calmette,1,2,29,48.88104925098552,2.424993216991425,2021-05-04 09:28:46
1021176825,Billancourt - Général Leclerc ,11,2,8,48.8322649,2.2380413,2021-05-04 09:34:25
54000611,Manin - Simon Bolivar,0,0,24,48.87649965412676,2.379407362599104,2021-05-04 09:30:50
66505511,François 1er - Montaigne,7,7,11,48.866887649978096,2.306675575720671,2021-05-04 09:31:56
335780498,Greneta - Sebastopol,10,8,14,48.86524233322809,2.3516669869422917,2021-05-04 09:34:38
36151,Favart - Italiens,13,4,0,48.87144635392104,2.338290105850787,2021-05-04 09:32:59
213848056,Parvis Corentin Celton,43,7,2,48.82747252522725,2.2784319519996648,2021-05-04 09:35:07
54000545,Parc André Citroën,47,3,13,48.840639944296655,2.2780618071556096,2021-05-04 09:35:16
1396728955,Bastille - Beaumarchais,6,3,12,48.85383346385182,2.3685702681541443,2021-05-04 09:32:15
120827885,Messine - Place Du Pérou,8,3,1,48.875448033960744,2.315508019010038,2021-05-04 09:33:36
452936197,Bois de Vincennes,18,6,34,48.8338064,2.4132221,2021-05-04 09:34:37
66491386,Surcouf - Université,34,3,17,48.861273016278126,2.309453550914185,2021-05-04 09:34:33
1023083417,Ney - Charles Hermite,7,3,10,48.89874803977525,2.3645754531025887,2021-05-04 09:32:48
1021553839,Faubourg Poissonniere - Delta,0,2,34,48.882555807626765,2.3497482016682625,2021-05-04 09:35:19
101751231,Saint-Amand - Labrouste,0,1,34,48.834097274832295,2.3087677359581,2021-05-04 09:31:58
100872260,Duroc - Place de Breteuil,31,4,7,48.84746064114221,2.3126140236854558,2021-05-04 09:31:44
82568336,Jeanne Hornet - Girardot,0,0,29,48.873802681432146,2.427820265293122,2021-05-04 09:34:28
1025995767,Hôtel de Ville de Champigny sur Marne,14,4,2,48.81381062840488,2.5096759200096135,2021-05-04 09:34:43
54000466,Uzès - Montmartre,7,5,16,48.870790980240706,2.3431010171771054,2021-05-04 09:35:18
82432573,Porte d'Ivry,2,5,41,48.82176874759649,2.3688706755638127,2021-05-04 09:32:06
224256188,Beaujon - Wagram,1,3,25,48.87535245598514,2.2964416444301605,2021-05-04 09:34:27
54000541,Vieille du Temple - Francs Bourgeois,7,2,19,48.858256413365815,2.35821794718504,2021-05-04 09:34:46
653065577,Gare du Nord - Demarquay,5,4,20,48.881154,2.358411,2021-05-04 09:33:31
1034242363,Place François Mitterand,0,0,32,48.86492782016328,2.442958317697048,2021-05-04 09:32:04
256403519,Place Pigalle,0,1,20,48.8827555,2.3361566,2021-05-04 09:30:58
484387018,Place du Maquis du Vercors,0,0,31,48.877321579493575,2.4083782732486725,2021-05-04 09:30:40
544249939,Raspail - Chomel,25,2,21,48.852233164303094,2.3266580700874333,2021-05-04 09:35:16
1035816937,Poissonniers - Nord,4,3,21,48.892511213520656,2.3522228747606277,2021-05-04 09:34:12
101490103,Saint-Jacques - Tombe Issoire,1,6,17,48.833206330538864,2.3369108140468597,2021-05-04 09:35:19
315525484,Berges de Seine - Musée d'Orsay,0,0,16,48.8627885936562,2.3064593598246574,2021-01-27 07:51:48
66507229,Reims - Porte d'Asnières,5,3,18,48.891834448210986,2.300144659954865,2021-05-04 09:35:12
54000539,Hôtel de Ville - Pont-Marie,5,1,27,48.85389964552738,2.356947250664234,2021-05-04 09:30:11
27415012,Bercy,37,8,20,48.83996691499447,2.378862574696541,2021-05-04 09:34:53
263610599,Centenaire - Sorins,8,1,35,48.85853523359734,2.4273508787155156,2021-05-04 09:29:19
27415215,Romain Rolland,9,1,15,48.820215229662765,2.3234144234418346,2021-05-04 09:34:24
49772483,Damrémont - Caulaincourt,0,0,18,48.88714509078738,2.3325880989432335,2021-05-04 09:34:43
653066427,Franciade - Gabriel Péri,1,3,22,48.93261499331498,2.355954498052597,2021-05-04 09:27:09
129089749,Brochant - Square des Batignolles ,12,3,16,48.88818698581028,2.316861143151153,2021-05-04 09:32:30
100770878,Poissy - Saint-Germain,6,1,16,48.849696494270084,2.352968528866768,2021-05-04 09:35:19
27415297,Square Raymond Souplex,0,1,51,48.89183721478911,2.335426103165901,2021-05-04 09:35:18
54000607,Convention - Saint-Charles,3,1,13,48.84315611111599,2.2831090539693832,2021-05-04 09:31:35
13283986,Keller - La Roquette,17,2,14,48.8555508,2.3752778,2021-05-04 09:33:41
36003,Pont de Lodi - Dauphine ,8,2,10,48.855296898603285,2.339947307565249,2021-05-04 09:27:22
100910836,Parmentier - Fontaine au Roi,7,4,35,48.86787670551736,2.372705978671471,2021-05-04 09:34:41
6515,Rougemont - Poissonnière,10,7,13,48.871611569354755,2.345873080193996,2021-05-04 09:34:59
82587428,Gambetta - Hôpital Tenon,0,0,34,48.867925154026736,2.400976623546542,2021-05-04 09:31:04
41523981,Mairie du 15ème,20,1,11,48.8417762,2.2986539,2021-05-04 09:34:23
1034247348,Place des Larris,1,2,29,48.8568363,2.4780236,2021-05-04 09:35:18
54000558,Chateaubriand - Friedland,2,0,29,48.8740144756374,2.29991625786582,2021-05-04 09:25:49
35089539,Manin - Crimée,0,3,20,48.8831217743719,2.3863670602440834,2021-05-04 09:27:04
27415169,Nationale - Marcel Duchamp,2,1,20,48.82463749337136,2.3678014799952507,2021-05-04 09:29:25
15412563,Square Desnouettes,14,6,0,48.83476837934194,2.284142297394666,2021-05-04 09:35:13
30179848,Saint-Blaise - Mouraud,0,1,26,48.85696177597818,2.40869477391243,2021-05-04 09:29:06
27363029,Charonne - Philippe-Auguste,3,5,22,48.85560316202584,2.390546390619984,2021-05-04 09:34:48
484889494,Hôtel de Ville de Levallois Perret,5,2,19,48.89314451997415,2.2888818383216862,2021-05-04 09:34:55
27363256,Thérèse - Opéra,6,5,12,48.86648351450895,2.334433421223788,2021-05-04 09:34:06
100902274,Roquépine - Malesherbes,17,12,7,48.87345073390807,2.320404499769211,2021-05-04 09:33:19
15414455,Paul Doumer - La Tour,1,1,32,48.860116109626574,2.280840481911055,2021-05-04 09:34:34
27415285,Place de Finlande,1,2,18,48.86240833596654,2.311362437903881,2021-05-04 09:34:03
39536951,Vistule - Choisy,3,5,24,48.82365543660611,2.3615723848342896,2021-05-04 09:34:38
78348185,Mairie de Clichy,3,1,46,48.903653634660834,2.3059353232383732,2021-05-04 09:34:47
249554935,Quai Anatole France - Musée d'Orsay,0,0,12,48.86121174057001,2.3242460936307903,2021-01-22 21:01:53
263732151,Gambetta - Michelet,1,1,29,48.85273792380526,2.429966032505036,2021-05-04 09:29:44
1036199130,Les Juilliottes,12,2,7,48.8043072,2.4437362,2021-05-04 09:29:37
129161858,République - Henri Barbusse,10,8,12,48.90661553626751,2.389432489871979,2021-05-04 09:33:09
653035822,Jeûneurs - Mulhouse,2,1,24,48.868997,2.346925,2021-05-04 09:35:14
27414460,Danielle Casanova - Place Vendôme,15,13,6,48.86826649822326,2.3304839059710503,2021-05-04 09:34:37
653069115,Claude Vellefaux - Sambre et Meuse,2,1,30,48.875022,2.370478,2021-05-04 09:34:02
76488849,Fernand Braudel - Vincent Auriol ,17,5,11,48.83637852318147,2.3723404482007027,2021-05-04 09:30:45
210394523,Porte Saint-Martin,7,4,21,48.86860172112996,2.35570102930069,2021-05-04 09:34:14
60667075,Georges V - François 1er,0,4,18,48.87034,2.30082,2021-05-04 09:32:37
66491368,Sorbonne - Ecoles,6,7,36,48.84968656619092,2.3434996604919434,2021-05-04 09:34:41
82419429,Faidherbe - Dahomey,4,3,32,48.851358329771806,2.383823134795429,2021-05-04 09:34:30
349750111,Bleue - Trévise,8,4,16,48.87578906564573,2.347289621829987,2021-05-04 09:34:42
52453,Le Vau - Maurice Bertaux,0,0,25,48.86803439043193,2.411030612453627,2021-05-04 09:33:36
210389577,Daunou - Louis le Grand,3,5,8,48.869113,2.332515,2021-05-04 09:29:35
15401095,Versailles - Claude Terrasse,4,2,40,48.84021933807409,2.263834191152959,2021-05-04 09:34:50
1055553396,Mornay - Sully,9,2,4,48.84970399548416,2.364460788667202,2021-05-04 09:33:24
312165511,Faubourg Du Temple - Republique,24,1,13,48.867872484748744,2.3648982158072323,2021-05-04 09:34:21
1036226943,Parc de Sceaux - Centre-Ville,18,8,6,48.7769529826096,2.2957214713096623,2021-05-04 09:32:13
1056959071,Place Mireille Havet,19,3,13,48.850533,2.383756,2021-05-04 09:35:22
66491371,Pierre Sarrazin - Saint-Michel,12,7,13,48.85090814639774,2.3421307280659676,2021-05-04 09:35:21
486833337,Bachaumont - Montmartre,6,6,19,48.86617395079137,2.3449775576591496,2021-05-04 09:34:51
1055541632,Place Tony de Graaff,3,1,36,48.8181645,2.2458109,2021-05-04 09:35:19
606669250,Square Georges Melies,7,10,22,48.84070239213081,2.409667745232582,2021-05-04 09:32:35
82402482,Gare de l'Est - Chateau Landon,0,2,55,48.879305,2.362424,2021-05-04 09:34:26
129050965,Place de la République - Voltaire,9,1,9,48.86683096894219,2.3654810339212418,2021-05-04 09:35:22
75313725,Ferrus - Saint-Jacques,4,8,22,48.8313878,2.3408563,2021-05-04 09:34:38
15383032,Place du Canada,18,14,8,48.865346269362675,2.310193787964762,2021-05-04 09:33:14
66505513,François 1er - Lincoln,4,6,21,48.86951797934417,2.302426218841562,2021-05-04 09:35:16
54000561,Lamartine - Faubourg Montmartre,0,2,29,48.87661398289084,2.339765690267086,2021-05-04 09:33:00
54001190,Mairie du 19ème,0,0,27,48.88256264247959,2.3812624812126164,2021-05-04 09:30:43
43219958,Odessa - Départ,1,0,38,48.842885590080826,2.3244281485676765,2021-05-04 09:29:17
82569809,Jardin Marguerite Long,4,3,15,48.8816985773914,2.2836575657129288,2021-05-04 09:33:11
82554786,Place de l'Eglise,1,1,28,48.892809461520265,2.4124351143836975,2021-05-04 09:34:48
266052390,Melun - Jean Jaurès,8,0,19,48.8837796723475,2.376477420330048,2021-05-04 09:30:21
82448637,Suffren - Pérignon,24,2,18,48.84717561492764,2.307052147596786,2021-05-04 09:34:48
37952191,Jean Jaurès - Reine,5,1,23,48.84009622558849,2.239872515201569,2021-05-04 09:35:17
34300292,Argenson - Château,6,1,18,48.888559314669514,2.2642001509666447,2021-05-04 09:34:44
54000567,Montreuil - Voltaire,0,2,32,48.85050701184191,2.393075558274471,2021-05-04 09:35:10
268976295,Butte aux Cailles - Esperance,1,2,32,48.82758774190948,2.3492151126265526,2021-05-04 09:27:43
27415444,Louis Ganne - Davout,1,2,26,48.86338720692607,2.409725748002529,2021-05-04 09:31:29
84983562,Roquette - Folie Regnault,10,3,33,48.859246959155485,2.386553623578705,2021-05-04 09:33:53
129081441,Vignes - Boulainvilliers,0,0,21,48.856399483950504,2.275240458548069,2021-05-04 09:31:43
653073004,Tremblay - Lac des Minimes,25,15,7,48.834131261494356,2.454751655459404,2021-05-04 09:32:14
1056986761,Terroirs de France - Lheureux,49,4,2,48.83212027074841,2.388618104159832,2021-05-04 09:34:39
41610121,Censier - Jardin des Plantes,21,1,3,48.84107178161383,2.355475388467312,2021-05-04 09:35:05
82566934,Brochant - Clichy,1,3,48,48.89032998912038,2.319730559929781,2021-05-04 09:33:06
128936618,Matignon - Faubourg Saint-Honoré,17,13,5,48.87147859116726,2.313977926969528,2021-05-04 09:34:47
262607058,Charles de Gaulle - Plateau de Vanves,4,4,20,48.82233088973263,2.298571803412886,2021-05-04 09:35:17
35106544,René Coty - Parc Montsouris,2,1,53,48.82479134498032,2.336124926805496,2021-05-04 09:32:51
267976590,François Truffaut - Saint Emilion,57,2,7,48.83372354344807,2.386601903271428,2021-05-04 09:35:19
1056965116,Lac Daumesnil - Saint-Maurice,7,3,38,48.82774555743318,2.4183654785156246,2021-05-04 09:34:49
54000630,Madeleine Michelis - Roule,5,7,12,48.88260431301364,2.2773634269833565,2021-05-04 09:34:53
1599921040,Jessaint - Marx Dormoy,1,2,27,48.88484543106364,2.358930408954621,2021-05-04 09:35:20
129096696,Léon - Doudeauville,0,1,12,48.88832421845225,2.353573372638597,2021-05-04 09:33:04
82590367,Place Marcel Sembat,7,7,40,48.83328865030686,2.2441747784614567,2021-05-04 09:34:17
82573931,René Binet - Porte de Montmartre,5,1,31,48.89905109950848,2.3365534096956253,2021-05-04 09:35:15
82436057,Moulin de la Pointe,5,1,16,48.82092946051445,2.3563179373741145,2021-05-04 09:35:19
269953055,Quai Marcel Boyer - Victor Hugo,0,1,28,48.82255636666729,2.392039597034455,2021-05-04 09:34:13
460558111,Square du Bataclan,4,5,11,48.8633762,2.3711327,2021-05-04 09:34:50
271540743,Gare de Clichy-Levallois ,3,0,22,48.89679827481989,2.2984680533409123,2021-05-04 09:33:45
452347778,Daumesnil - Picpus,4,1,16,48.8374688,2.401765,2021-05-04 09:33:58
13372702,Saint-Fargeau - Mortier,0,0,33,48.87266656122256,2.407912909984589,2021-05-04 09:35:03
1599931563,République - Auguste Perret,1,0,29,48.78695280952244,2.3518594354391094,2021-05-04 09:28:56
15411223,Dareau - Broussais,5,2,16,48.8307758,2.3361804,2021-05-04 09:34:26
85152599,Le Corbusier - Jean Jaurès,21,4,20,48.83780830557548,2.2408381104469304,2021-05-04 09:34:38
284711589,Beaumarchais - Pas de la Mule,12,3,1,48.855580507049055,2.368433367343057,2021-05-04 09:35:04
357491025,Place Centrale ,0,4,18,48.78740167690531,2.2278830409049992,2021-05-04 09:31:17
30550,Mairie du 9ème,9,2,13,48.87326713758289,2.340753448052758,2021-05-04 09:34:47
478593396,Jean Moulin - Paul Doumer,0,0,18,48.8622179854695,2.45533436536789,2021-05-04 09:32:17
213675430,Boutroux - Porte de Vitry,37,1,11,48.822632,2.377738,2021-05-04 09:33:52
462875227,Jules Guesde - Alsace,6,4,15,48.89056627550627,2.295077741146088,2021-05-04 09:34:07
213693126,Véron - Lepic,0,0,22,48.88526123395252,2.334559857845307,2021-05-04 09:34:12
363735875,Pont De Charenton,9,2,7,48.8179685,2.4199531,2021-05-04 09:31:45
265266148,Pierre Brossolette - Adolphe Pinard,1,1,20,48.82177227954821,2.313155829906464,2021-05-04 09:32:18
390075668,Stade Georges Carpentier,14,4,21,48.82048243838136,2.366832196712494,2021-05-04 09:29:55
457713145,Gare de Nanterre Ville,12,5,24,48.8950295,2.1957932,2021-05-04 09:34:47
392576677,Senard - Charles Blum,10,4,8,48.857315824799,2.221091687679291,2021-05-04 09:33:27
124390478,Commandant l'Herminier - Gallieni,3,3,11,48.84704055260307,2.416045367717743,2021-05-04 09:34:50
338853596,Charles de Gaulle - Orléans ,5,6,13,48.88092225101522,2.271581590175629,2021-05-04 09:34:27
1056995858,Gergovie - Vercingétorix,0,3,26,48.83453413883994,2.313154547426182,2021-05-04 09:32:12
452341449,Choisy - Tolbiac,3,1,20,48.82591155587023,2.3602393269538884,2021-05-04 09:31:08
100905057,Londres - Amsterdam,3,7,13,48.878034461503965,2.326483540969424,2021-05-04 09:35:18
66491406,Cours de Vincennes - Davout,7,5,35,48.847238029965595,2.4107042336224986,2021-05-04 09:34:19
1056972307,Pyramide - Parc Floral,26,8,16,48.837442,2.440452,2021-05-04 09:35:15
653217067,Jules Guesde - Laennec,2,13,4,48.87628983900398,2.5006942078471184,2021-05-04 09:31:26
1109534105,Demi-Lune - Aristide Briand,0,0,20,48.87626381919953,2.4562818557024,2021-05-04 09:30:22
54000550,Rapp - Place du Général Gouraud,16,11,0,48.85810288510693,2.300407290458679,2021-05-04 09:35:14
653076373,Bois de Vincennes - Porte Jaune,3,3,28,48.838751246689455,2.4605489149689674,2021-05-04 09:34:54
365181481,Guy Môquet - Saint-Ouen,1,2,50,48.892777719023975,2.3270335793495183,2021-05-04 09:34:22
52456,Pré Saint-Gervais - Lilas,0,1,27,48.87787062698808,2.39590734243393,2021-05-04 09:33:21
15310509,Choron - Martyrs,3,1,13,48.877851443502536,2.3396701365709305,2021-05-04 09:35:21
27414924,Sambre et Meuse - Villette,0,1,23,48.87440566621717,2.373807237995119,2021-05-04 09:33:02
275968458,Place du Président Salvador Allende,7,5,47,48.897307310356055,2.40079153681279,2021-05-04 09:30:20
213995665,Square Edmond Pépin,1,1,26,48.88365620689917,2.4033531546592717,2021-05-04 09:32:50
272638713,Charles de Gaulle - Louis-Philippe,8,8,9,48.88162131114395,2.2712830090406526,2021-05-04 09:35:01
128928526,Clapeyron - Moscou,1,2,11,48.88078819514121,2.324815057218075,2021-05-04 09:34:27
27415123,Boussingault - Tolbiac,0,0,26,48.82603516605852,2.342176808004326,2021-05-04 09:32:30
287096529,Paul Klee - Place Augusta Holmes,21,9,13,48.838946417408025,2.3704235663952966,2021-05-04 09:35:00
97705710,Jacquard - Ternaux ,7,1,29,48.8646605,2.373162,2021-05-04 09:35:10
13242682,Alexander Fleming - Belvédère,4,0,27,48.88179064200294,2.4030599377642674,2021-05-04 09:35:08
278576043,Honoré d'Estienne d'Ovres - Grilles,3,2,11,48.89056394743836,2.4064831843792427,2021-05-04 09:29:18
213695073,Hôpital Robert Debré,5,3,24,48.88005222200894,2.4008650346327003,2021-05-04 09:32:06
284708999,Santé - Arago,9,2,26,48.83507657562064,2.3415737262044938,2021-05-04 09:35:17
653079520,Averroès - Aimé Césaire,3,5,11,48.91405323432864,2.412636950612068,2021-05-04 09:33:20
653076393,Place du Front Populaire - George Sand,8,11,13,48.90680713698062,2.364541214992642,2021-05-04 09:34:14
7261,Athènes - Clichy,7,4,9,48.878113787876,2.32956021945824,2021-05-04 09:34:52
129069108,Paul Barruel - Vaugirard,1,2,36,48.84014918546239,2.3044332861900334,2021-05-04 09:35:02
291354793,Gare de Lyon - Van Gogh,33,5,12,48.8438397856433,2.370445024035681,2021-05-04 09:34:48
30641281,Place de la Montagne du Goulet,16,1,4,48.8443415,2.2773844,2021-05-04 09:24:53
54000593,Longchamp - Place d'Iéna,3,5,30,48.86491723343388,2.2926748171448708,2021-05-04 09:32:42
27362949,Louis Blanc - Jemmapes,2,3,26,48.879330755297346,2.368448562920093,2021-05-04 09:35:04
1057003116,Charles Lecocq - Lecourbe,3,1,25,48.84044,2.294867,2021-05-04 09:31:44
285726279,Quai de Valmy,2,1,23,48.88126951579429,2.368186041712761,2021-05-04 09:33:20
284787594,Place d'Italie - Vincent Auriol,4,0,33,48.83148187446674,2.356755029231863,2021-05-04 09:34:02
285454061,Square de la rue Pixérécourt,0,1,14,48.8736824,2.3960278,2021-05-04 09:29:58
41587607,Georges Bernanos - Port Royal,3,3,22,48.84014521347377,2.3373574018478394,2021-05-04 09:34:58
1056979685,Bastille - Quai de la Rapée,9,3,15,48.84682410855044,2.366936467587948,2021-05-04 09:33:21
213685863,Parc Suzanne Lenglen,35,9,4,48.833250690537874,2.2765403240919113,2021-05-04 09:34:15
653062048,Gare du Nord - Place de Valenciennes,0,11,14,48.879089,2.354235,2021-05-04 09:32:56
213686471,Eylau - Trocadéro,0,0,24,48.863354122370744,2.2864209115505223,2021-05-04 09:32:25
1062812659,Auguste Blanqui - Glacière,42,2,15,48.831151602964354,2.3438221961259837,2021-05-04 09:35:12
653079135,Mazagran - Pierre de Coubertin,7,3,3,48.816218640260445,2.344226874411106,2021-05-04 09:26:12
27363558,Wurtz - Tolbiac,6,1,19,48.82631195621006,2.344585955142975,2021-05-04 09:31:44
38319086,Pierre Demours - Laugier,0,2,34,48.8813072,2.294846,2021-05-04 09:31:43
409364001,Ivry - Simone Weil,3,3,13,48.823283932030755,2.3659095168113713,2021-05-04 09:33:22
653129435,Neuilly - Petit,12,1,2,48.898965361341254,2.29627937078476,2021-05-04 09:34:22
221032834,Metz - Faubourg Saint-Denis,28,2,17,48.870893,2.353521,2021-05-04 09:35:08
292871105,Botzaris - Crimée,1,0,20,48.87959698690176,2.3887913337477067,2021-05-04 09:35:16
124622630,Pelée - Alphonse Baudin,1,2,34,48.8600265,2.3710541,2021-05-04 09:31:52
210584503,Gare de l'Est - Fidélité,6,1,8,48.874575,2.356796,2021-05-04 09:34:08
95073815,Saint-Lazare - Place d'Estienne d'Orves,2,2,34,48.8768345,2.3329067,2021-05-04 09:35:19
362178041,Place Jules Ferry,0,1,26,48.812107928414775,2.325837314128876,2021-05-04 09:33:56
100783424,Censier - Santeuil,51,1,12,48.840658921385234,2.3537524044513702,2021-05-04 09:35:07
1057081237,Cimetière Communal,0,3,21,48.81769977392539,2.260931208729744,2021-05-04 09:30:28
422639331,Mairie de Neuilly sur Seine,6,5,20,48.88494728765838,2.2677031159400944,2021-05-04 09:34:25
42541542,Gare Montparnasse - Edgar Quinet,3,1,26,48.841487851078895,2.3233232282800524,2021-05-04 09:35:01
1057061349,Chancé Milly - Cimetière Communal Sud,2,0,29,48.89687189382465,2.303922325372696,2021-05-04 09:32:45
96512532,Joseph Sansboeuf - Saint Lazare,9,8,1,48.87531563065266,2.3229019716382027,2021-05-04 09:32:27
38280,Saint-Didier - Raymond Poincaré,0,1,16,48.86642312020962,2.285863497192411,2021-05-04 09:34:53
653125838,Cours de l'Ile Seguin - Parc Billancourt,19,2,4,48.82714055843935,2.234234511852265,2021-05-04 09:34:07
594942659,Gare du Nord - Denain,1,0,19,48.879595787608096,2.3544725775718693,2021-05-04 09:31:44
404947652,Place Fernand Forest,18,0,13,48.849269143835926,2.2818631678819656,2021-05-04 09:31:29
129142199,Marcel Yol - Jullien,1,6,20,48.82537611802588,2.287235018058929,2021-05-04 09:31:12
476053320,Ecole Militaire - Place Joffre,15,1,9,48.852060203582795,2.301799356937409,2021-05-04 09:34:01
129121741,Belleville - Couronnes,0,2,47,48.86883108287741,2.380986213684082,2021-05-04 09:29:02
27415524,Saint-Germain-des-Prés,12,7,6,48.85418510815204,2.330305874347687,2021-05-04 09:34:33
214109662,Hôtel de ville de Fontenay-sous-Bois,0,2,18,48.84949749106274,2.4750164151191716,2021-05-04 09:25:08
653122771,Marc Sangnier - Division Leclerc,11,6,7,48.78599652305309,2.329955510795116,2021-05-04 09:35:06
303563942,Hôtel de Ville - Pont d'Arcole,0,0,20,48.85587645183987,2.350892163813114,2021-01-22 23:26:39
35147530,Pierre Levée - Fontaine Timbaud,3,3,15,48.86632723374305,2.3711163550615306,2021-05-04 09:34:03
101756482,Convention - Vaugirard,11,4,32,48.83767682233156,2.295586926020252,2021-05-04 09:35:23
1057179405,Résistance - Hoche,1,1,28,48.864273423741956,2.435784414410591,2021-05-04 09:31:44
653135400,Paul Vaillant-Couturier - Gare RER,5,12,4,48.80108159069614,2.402097210288048,2021-05-04 09:33:12
213689228,Raffet - Montmorency,0,2,40,48.85258670812,2.2629252456151954,2021-05-04 09:34:55
129079313,Commerce - Letellier,16,1,25,48.84797660373612,2.2966245196598805,2021-05-04 09:34:05
129135654,Victor Cresson - Telles de la Poterie,19,1,10,48.82269884297945,2.2686498274963633,2021-05-04 09:34:49
1057039016,Fessart - Château,7,4,7,48.84245,2.23989,2021-05-04 09:34:55
653080383,Bruneseau - Quai d'Ivry,12,0,35,48.82494563758295,2.388566136360169,2021-05-04 09:33:21
54000614,Porte de Pantin - Petits Ponts,0,0,48,48.89041086237,2.3981939256191254,2019-06-06 09:56:04
37921892,Vinaigriers - Magenta,4,3,17,48.8731167,2.3593052,2021-05-04 09:32:56
1190800638,Ranelagh - Maison de la Radio,15,2,5,48.85293603169479,2.280449643731117,2021-05-04 09:30:17
36473,Cadet - La Fayette,10,3,0,48.87560163267239,2.343570403754711,2021-05-04 09:34:37
303102719,Brancion - Lefebvre,2,2,7,48.82900222785569,2.301431038163409,2021-05-04 09:33:15
27363277,Place Saint-Ferdinand,6,0,32,48.87815529789739,2.288518047864942,2021-05-04 09:33:39
6295,Pontoise - La Tournelle,4,5,12,48.85045800918843,2.352454275492188,2021-05-04 09:34:22
303452950,Hôtel de Ville de Fontenay-aux-Roses,4,6,22,48.790844603480856,2.2871455930319455,2021-05-04 09:35:11
54000617,Docteurs Déjérine - Pte de Montreuil,2,1,17,48.85398448133697,2.41208288897222,2021-05-04 09:31:10
1057045129,Cimetière communal,8,3,29,48.830764,2.252024,2021-05-04 09:30:20
653131074,Vanne - Général de Gaulle,7,2,12,48.815007,2.328318,2021-05-04 09:32:47
308082350,Malakoff - Place de la Porte Maillot,7,2,21,48.876733496637506,2.2834577411413193,2021-05-04 09:30:24
302725495,Gare SNCF Vanves-Malakoff,3,2,43,48.819002163836444,2.292150005103606,2021-05-04 09:31:58
653126035,Vanne - Saussaies,7,1,12,48.786404,2.338848,2021-05-04 09:26:32
210745258,Jean-Pierre Timbaud - Vaucouleurs,3,3,39,48.867937,2.377885,2021-05-04 09:35:03
457834134,André Maurois - Joseph et Marie Hackin,5,2,21,48.8778983,2.2789591,2021-05-04 09:34:38
653123610,Pierre Lefaucheux - Traversière,24,0,11,48.82435208303827,2.2417913004755974,2021-05-04 09:32:28
213691137,Carnot - Général Lanrezac,0,0,33,48.8754438707356,2.2938242935035684,2021-05-04 09:30:28
35101194,Place de l'Insurrection d'Août 1944 ,19,0,11,48.81477852751594,2.398074567317963,2021-05-04 09:31:31
54000615,Buzenval - Avron,0,2,47,48.851617204998654,2.401513597307666,2021-05-04 09:34:19
135806005,Mairie de Romainville,0,7,9,48.885109,2.435679,2021-05-04 09:33:45
54000562,Square Alban Satragne,4,1,24,48.87534054839558,2.35588476061821,2021-05-04 09:34:30
653135378,Amaury Duval - Gabriel Péri,2,0,34,48.81718759671675,2.323841750621796,2021-05-04 09:28:09
82550543,Place de Barcelone - Mirabeau,17,3,35,48.84762302736417,2.2735664248466496,2021-05-04 09:34:21
402212574,Charles de Gaulle - Graviers,0,6,22,48.88315175918637,2.2648814320564274,2021-05-04 09:31:18
1057184567,Paul Signac - Aristide Briand,1,0,33,48.86950262156371,2.4502260982990265,2021-05-04 09:34:16
210751059,Hôpital - Campo-Formio,0,1,14,48.835405,2.358218,2021-05-04 09:30:20
34235349,Jean Calvin - Tournefort,7,4,15,48.84158856925782,2.348489575088024,2021-05-04 09:35:16
559980654,George V - Christophe Colomb,6,6,12,48.87046,2.30104,2021-05-04 09:32:58
1057203651,Stade de France,4,7,32,48.919141953558054,2.362065576016903,2021-05-04 09:33:00
453172172,Porte d'Italie,1,5,6,48.817161987718954,2.360236309468746,2021-05-04 09:30:49
478385490,Charles Gide - Fort de Bicêtre ,0,0,30,48.8071937956922,2.353984415531159,2021-05-04 09:31:42
102326776,Jardin de l'Hospice Debrousse,0,0,23,48.861451061938,2.405686005949974,2021-05-04 09:34:24
213706622,Vitruve - Davout,1,1,21,48.86053161154489,2.4091592812626543,2021-05-04 09:25:21
213686749,Place de la Porte de Passy,3,3,29,48.857341095470794,2.2644165538827115,2021-05-04 09:31:31
1057302263,Place Nationale - Château-des-Rentiers,2,1,14,48.829566,2.365053,2021-05-04 09:26:17
311552027,Temple - Charlot,20,1,24,48.86570934379584,2.365273725072355,2021-05-04 09:34:22
82375611,Batignolles - Beudant,2,0,42,48.88216401466375,2.319852970540523,2021-05-04 09:33:33
27269170,Quai aux Fleurs - Pont Saint-Louis,16,0,3,48.85291595620935,2.352195717394352,2021-05-04 09:31:05
66491395,Daumesnil - Hébrard,38,1,0,48.8429,2.38474,2021-05-04 09:30:35
38192,La Motte-Picquet - Grenelle,7,2,25,48.84858321339195,2.299347817897797,2021-05-04 09:34:30
443402852,Place de Lévis,1,2,44,48.883546851533254,2.3131933808326726,2021-05-04 09:34:17
82572699,Damrémont - Ordener,1,0,29,48.893400392981874,2.336266523912805,2021-05-04 09:34:36
84958519,Arcole - Notre-Dame,17,9,4,48.85388354132773,2.3493797332048416,2021-05-04 09:33:37
1057319366,Quai de la Gare - Pont de Bercy,0,0,30,48.837307879720484,2.3740861260598494,2019-03-19 14:49:19
1062162270,Théâtre,1,1,18,48.905768309295276,2.2353921022349748,2021-05-04 09:35:15
458086607,Président Wilson - Baudin,6,5,17,48.89826887103676,2.2849336266517644,2021-05-04 09:34:36
98187918,Lobau - Hôtel de Ville,25,10,26,48.8562118,2.3532536,2021-05-04 09:34:30
7247,Charonne - Pierre Bayle,1,4,15,48.858445054261914,2.39039812238911,2021-05-04 09:34:21
653081846,Jourdan - Monticelli,2,1,27,48.822032,2.329095,2021-05-04 09:35:18
213689815,Porte d'Asnières,3,1,31,48.89035817610495,2.3036286234855656,2021-05-04 09:32:00
443198808,Gaston Tessier - Rosa Parks RER,14,10,13,48.8963765,2.3743692,2021-05-04 09:35:14
620676855,Camille Groult - Guy Môquet,5,3,9,48.787482746521306,2.3976725712418556,2021-05-04 09:34:58
1062238429,Place de l'Europe,7,0,10,48.82529858840266,2.3945679143071175,2021-05-04 09:32:59
13191324,Assas - Luxembourg,6,6,17,48.84373446877937,2.333428381875887,2021-05-04 09:35:12
101491821,Jean Moulin - Place Victor et Hélène Basch,2,3,35,48.82764910240992,2.326196730136872,2021-05-04 09:31:55
102745622,Raspail - Albert Schweitzer,16,0,10,48.81031545,2.34395871,2021-05-04 09:35:02
213999554,Jean Jaurès - Ouvrières Pivéreuses,5,6,9,48.91042343752563,2.399576604366303,2021-05-04 09:34:31
213677219,Brillat-Savarin - Küss,8,0,13,48.822203,2.350422,2021-05-04 09:30:16
6294,Marché aux fleurs,13,3,5,48.85525811539143,2.3473754525184636,2021-05-04 09:33:33
85155919,Estienne d'Orves - Henri Ginoux,1,2,28,48.815388220397274,2.320886790760933,2021-05-04 09:34:10
82562496,Benjamin Delessert - Jean Lolive,3,1,17,48.89392043619345,2.417981922626496,2021-05-04 09:35:02
369011098,Paris - Laitières,0,3,15,48.84630274151258,2.4207553267478947,2021-05-04 09:34:50
102343591,Louis Pasteur - Albert Petit,1,5,25,48.796261,2.317289,2021-05-04 09:28:14
27415150,Bobillot - Paulin Mery,3,1,18,48.829899841747384,2.3543356766748507,2021-05-04 09:34:32
82565383,Jacques Kellner - Saint-Ouen,0,4,39,48.895809485802886,2.327897409164145,2021-05-04 09:35:19
653134004,Louis Rolland - République,7,2,16,48.81710889740748,2.3193106434955717,2021-05-04 09:34:58
27415246,Javel - André Citroën,29,0,15,48.846276485475,2.2786368057131767,2021-05-04 09:34:08
389788858,Emeriau - Beaugrenelle,57,2,15,48.84791249714942,2.2843059897422795,2021-05-04 09:35:02
1056947780,Faubourg Poissonnière - Dunkerque,1,0,26,48.880883445404436,2.349934279918671,2021-05-04 09:34:32
38327,Victor Hugo - La Pompe,1,2,37,48.86795222470859,2.28146318346262,2021-05-04 09:35:03
82499609,Convention - Lourmel,22,1,12,48.84205504165568,2.2859910875558853,2021-05-04 09:34:09
100925033,Gare de Lyon - Chalon,4,1,39,48.84566619420225,2.3741452395915985,2021-05-04 09:28:11
109609241,Colmar - Victor Hugo,13,4,14,48.88652251096166,2.173960916697979,2021-05-04 09:34:10
210738704,Mazagran - Bonne Nouvelle,3,5,18,48.870047123655254,2.351124845445156,2021-05-04 09:34:56
235197110,Place de la Gare,3,4,38,48.80253358011283,2.4275037646293645,2021-05-04 09:32:41
417088374,Place Mongolfier,23,3,13,48.815160030060376,2.4592879414558415,2021-05-04 09:35:02
129145892,Paris - Désiré Préaux,6,7,34,48.85742876694898,2.4323049187660217,2021-05-04 09:34:10
439750210,Italie - Jardin Joan Miro,11,3,10,48.81990914045756,2.3592948541045193,2021-05-04 09:32:32
214097180,Paul Doumer - Stalingrad,13,9,0,48.806518992198676,2.3368880152702336,2021-05-04 09:33:04
42720305,Monceau - Malesherbes ,1,3,33,48.8795079,2.3145456,2021-05-04 09:31:29
653205656,Gare de la Garenne-Colombes,0,0,27,48.909752,2.239145,2021-05-04 09:28:37
653147618,Lucien Lanternier - Le Luth,3,2,22,48.93159430558871,2.2889783978462224,2021-05-04 09:33:13
455294759,Place Charles de Gaulle,9,2,15,48.89664310147264,2.2525700926780705,2021-05-04 09:34:54
417623119,Mairie de quartier du Plateau - Mont-Valérien,0,1,17,48.8799933,2.2072437,2021-05-04 09:25:35
54000632,Paul Vaillant-Couturier - Victor Hugo,11,2,20,48.89819702263572,2.293848017974069,2021-05-04 09:34:07
428088564,La Jarry - Place Diderot,0,0,25,48.849726940367326,2.452013790607453,2021-05-04 09:35:13
27064639,Vaugirard - Pasteur,2,1,17,48.84040868803496,2.3154367133975033,2021-05-04 09:34:46
85015750,Pergolèse - Malakoff,1,1,7,48.87521088779225,2.2842781618237495,2021-05-04 09:30:18
102722579,Voltaire - Anatole France,12,3,11,48.891999360256904,2.284262739121914,2021-05-04 09:33:36
365886904,Berthier - Place Stuart Merril,1,1,34,48.885927922355044,2.2933450341224675,2021-05-04 09:34:48
653083263,Lucien Bossoutrot - Général Martial Vallin,23,15,0,48.83695604631085,2.274107225239277,2021-05-04 09:34:58
39151458,Goutte d'or - Barbès,1,2,17,48.88512432362698,2.349696233868599,2021-05-04 09:34:57
468354634,Quai de l'Oise - Aisne,1,3,23,48.8906231,2.3833701,2021-05-04 09:30:50
379063990,Place du 14 Juillet,0,0,22,48.8192669595252,2.30119988322258,2021-05-04 09:26:28
221036108,Charonne - Bureau,0,1,45,48.854176,2.396093,2021-05-04 09:33:36
213692227,Square Louise Michel,1,2,33,48.88468735450907,2.3441386967897415,2021-05-04 09:33:20
75641607,Blaise-Desgoffe - Vaugirard,5,4,21,48.84612887774711,2.324267216026783,2021-05-04 09:34:17
653137566,Mairie de Clamart,5,7,19,48.800612,2.262151,2021-05-04 09:32:11
335989765,Rond-Point de la Chapelle,13,3,33,48.895126609314104,2.359971106052399,2021-05-04 09:34:15
213682190,Place Jacques et Thérèse Tréfouël,0,0,43,48.842726498316644,2.3125657439231877,2021-02-09 18:39:08
213674686,Place Jeanne d'Arc,1,0,35,48.829575,2.369126,2021-05-04 09:28:55
15212034,Gérando - Rochechouart,0,0,21,48.88294340844958,2.346484623849392,2021-05-04 09:34:40
38522,Douai - Pierre Fontaine,0,3,22,48.88229101148092,2.33324121683836,2021-05-04 09:32:33
488889101,Bessières - Porte de Clichy,14,5,14,48.89611762451474,2.31790903955698,2021-05-04 09:34:36
653083675,Maréchal Joffre - Verdun,1,1,18,48.85385,2.470307,2021-05-04 09:29:52
266422568,Place Edmond Michelet,8,3,12,48.860134890541865,2.350063696503639,2021-05-04 09:34:28
488872892,Emile Zola - Fondary,15,3,22,48.847051143113745,2.2953405976295476,2021-05-04 09:32:57
129016495,Taitbout - La Fayette,15,9,28,48.87332988919973,2.3352625966072087,2021-05-04 09:29:48
488800137,Portugais - Kléber,5,8,13,48.8712148,2.2937349,2021-05-04 09:32:01
131094294,Charles Tillon - Cimetière Communal,6,1,23,48.91844023641836,2.3935630917549138,2021-05-04 09:26:45
1057335613,Quai du Président Roosevelt - Pont Aval,28,1,0,48.8343883676388,2.2656820714473724,2021-05-04 09:34:40
491687415,Delizy - Louis Nadot,4,3,15,48.896212845581346,2.4094578623771667,2021-05-04 09:34:36
82455731,Cambronne - Villa Croix Nivert,18,2,41,48.84584756136587,2.3017574474215508,2021-05-04 09:34:42
1057730786,Halles - Bourdonnais,10,8,0,48.86044899257468,2.3460162431001663,2021-05-04 09:35:03
653141822,Île de la Jatte,0,2,20,48.894036161302104,2.2666339203715324,2021-05-04 09:32:27
488980540,Saint-Mandé - Fabre d'Eglantine,4,1,29,48.8453579,2.3965022,2021-05-04 09:30:01
54000599,Lemercier - Cardinet,1,1,22,48.890097168851746,2.317377626895905,2021-05-04 09:33:18
1057221951,Balzac - Olympes de Gouges,12,5,9,48.77850332486751,2.4006786569952965,2021-05-04 09:33:51
653137567,Place Saint-Just,9,10,3,48.790379518724265,2.3895226791501045,2021-05-04 09:34:12
54000600,Toqueville - Cardinet,8,3,22,48.88490187110713,2.3109393194317818,2021-05-04 09:34:53
39202840,Rochechouart - Martyrs,1,0,18,48.88219377957169,2.3405495658516884,2021-05-04 09:32:58
494183852,La Motte-Picquet - La Tour Maubourg,14,2,22,48.8572316,2.3094136,2021-05-04 09:34:42
1057399900,Placette Grégoire Collas,6,6,10,48.94342014002797,2.2487476095557213,2021-05-04 09:34:04
210395439,Centre Georges Pompidou,13,0,12,48.861419,2.352581,2021-05-04 09:35:19
559595472,Suffren - Champ de Mars,16,0,5,48.8547194,2.2952168,2021-05-04 09:32:50
491932748,Porte des Lilas - Faidherbe,0,1,38,48.87861855668978,2.4120327830314636,2021-05-04 09:25:22
1057329581,Square Bela Bartok,18,3,3,48.85120156830401,2.2846536710858345,2021-05-04 09:32:08
1057378487,Fort d'Aubervilliers,4,3,15,48.91502382370325,2.4035281687974925,2021-05-04 09:34:02
54000556,Gare du Nord - Faubourg Saint-Denis,3,4,22,48.879612765503616,2.3568402975797653,2021-05-04 09:34:59
82336035,Saint-Germain - Ciseaux,5,4,7,48.85330527759475,2.334465461882703,2021-05-04 09:25:23
100923502,Crozatier - Faubourg Saint-Antoine,18,4,6,48.8504400134045,2.37890136621104,2021-05-04 09:35:09
1314450240,Gare du Stade,3,7,8,48.9312676,2.2603778,2021-05-04 09:35:17
2515636592,Mstislav Rostropovitch - Berthier,2,3,13,48.892120821173975,2.309234105050564,2021-05-04 09:31:58
210582231,Londres - Place d'Estienne d'Orves,6,1,15,48.876693805756986,2.3305362090468407,2021-05-04 09:34:55
1057737444,Place Ginette Hamelin,35,1,15,48.837853,2.382064,2021-05-04 09:34:37
653139063,Pont de Suresnes,19,11,21,48.8674150923217,2.225894667961703,2021-05-04 09:34:43
1057091571,Esplanade du Foncet - Camille Desmoulins,18,2,5,48.827090233494964,2.2606857866048813,2021-05-04 09:34:20
255322397,Auguste Blanqui - Corvisart,1,1,23,48.8300989,2.3502726,2021-05-04 09:26:58
653087180,Clichy - Douai,1,2,29,48.88411831886975,2.3287287354469304,2021-05-04 09:33:10
312870435,Dunkerque - Trudaine,0,1,15,48.88215166773376,2.3463253676891327,2021-05-04 09:34:54
129059516,Picpus - Louis Braille,0,0,43,48.839988788911874,2.400525668552064,2021-05-04 09:35:07
1057354004,Chemin de Bretagne,21,1,6,48.825147,2.25936,2021-05-04 09:35:05
129106450,Joseph Dijon - Ornano,1,0,36,48.89374453351521,2.3476678133010864,2021-05-04 09:30:53
1057405802,Place Nelson Mandela,4,7,18,48.897874318180556,2.2182820737361912,2021-05-04 09:34:20
653085678,Berthier - Porte de Clichy,0,0,0,48.89430232362258,2.3125627956296584,2019-02-14 10:23:11
213894629,Square Denise Buisson,2,2,41,48.8562322730982,2.426436245441437,2021-05-04 09:28:27
1227051850,Glacière - Soeur Catherine Marie,10,1,28,48.829522989420596,2.343570403754711,2021-05-04 09:34:08
27414544,Place Monge,0,2,19,48.842761803051346,2.3524079471826553,2021-05-04 09:34:43
1237624420,Maurice d'Ocagne - General Maudhuy,1,4,24,48.82414282524159,2.3158789426088333,2021-05-04 09:34:06
1057748427,Rottembourg - Général Michel Bizot,15,0,28,48.83787825992554,2.4044052511453633,2021-05-04 09:34:26
285001735,Vivienne - Montmartre,7,5,27,48.8713475973833,2.341458834707737,2021-05-04 09:33:59
54000560,Geoffroy - Marie,13,5,2,48.873781940593325,2.344513876337893,2021-05-04 09:34:37
15309045,Marché Saint-Quentin,1,1,12,48.877356057652264,2.354511445637388,2021-05-04 09:33:52
101017160,Place de Rungis,4,0,28,48.82245594764965,2.347382729482953,2021-05-04 09:35:16
100933541,Vivaldi - Antoine-Julien Hénard,6,1,20,48.841923663276546,2.389728979467376,2021-05-04 09:33:19
36391,Godot de Mauroy - Madeleine,15,4,0,48.869789,2.326347,2021-05-04 09:31:22
100934967,Madagascar - Meuniers,15,1,17,48.83460464474706,2.3970650508999825,2021-05-04 09:24:33
76121343,Abbé Groult - Convention,8,2,2,48.83596927866069,2.302064039509349,2021-05-04 09:34:35
437741660,Saint-Denis - Rivoli,13,4,24,48.85905934084166,2.3476943001151085,2021-05-04 09:34:10
1062783107,Buffon - Jardin des Plantes,18,1,9,48.842668466104875,2.3618587106466293,2021-05-04 09:35:08
653086121,Louis Xavier de Ricard - Ancienne Mairie,3,5,25,48.84629899065091,2.472420372068882,2021-05-04 09:34:35
653139897,Lebrun - Colonel Fabien ,2,0,25,48.78266870733145,2.381317801773548,2021-05-04 09:34:41
476155906,Saint-Antoine Sévigné,6,3,15,48.8550222,2.3612322,2021-05-04 09:33:27
1062742831,Place Joffre - Frédéric le Play,24,1,13,48.85375448693786,2.3044242337346077,2021-05-04 09:35:13
27415547,Square Etienne Jarousse,0,2,23,48.82485182597129,2.2925933450460434,2021-05-04 09:32:40
54000543,Cloître Saint-Merri - Renard,6,2,22,48.85883544889818,2.351827919483185,2021-05-04 09:35:03
1015246367,Champs-Elysees - Bassano,0,0,25,48.87181180781605,2.3002389818429947,2021-02-21 20:09:18
1057765913,Hôpital Necker,29,8,1,48.846043490118454,2.313245013356209,2021-05-04 09:34:29
1057234527,Gare d'Argenteuil,7,7,25,48.947022436806705,2.256898172199726,2021-05-04 09:31:40
49498164,Mairie du 8ème ,13,1,0,48.877932,2.318264,2021-05-04 09:33:12
221043930,Bagnolet - Orteaux,0,2,34,48.85708641027236,2.3984125256538396,2021-05-04 09:33:05
1057072168,Jules Guesdes - Général de Gaulle,0,9,15,48.81930581291959,2.278934195637703,2021-05-04 09:32:35
1062685145,Bibliothèque Nationale,3,2,11,48.868288993514916,2.338089309632778,2021-05-04 09:34:10
1056715831,Marché Saint-Germain,14,2,4,48.85165625855281,2.335500307381153,2021-05-04 09:33:50
101742129,Cherche-Midi - Hôpital Necker,10,2,26,48.84461063309956,2.317914068698883,2021-05-04 09:34:03
101011685,Charenton - Prague,18,4,3,48.848175129981016,2.376358449431232,2021-05-04 09:35:13
1057360420,Place Aimé Césaire,6,4,16,48.783194713067815,2.2429127991199493,2021-05-04 09:33:59
1062704564,Bourg l'Abbé - Saint-Martin,4,3,35,48.86393331949257,2.352406270802021,2021-05-04 09:30:06
49117995,Condorcet - Turgot,0,0,20,48.87985155789093,2.345232367515564,2021-05-04 09:33:37
214119792,Gare RER - Malleret-Joinville,2,1,17,48.802936,2.42531,2021-05-04 09:34:36
37504995,Jean Monnet - Iles,19,0,6,48.823393984057304,2.2497073194874866,2021-05-04 09:34:05
131908132,Parc Eli Lotar,1,3,18,48.91844993053703,2.3727085813879967,2021-05-04 09:32:47
102307005,Villiers - Batignolles,2,1,20,48.88125253846116,2.31653843075037,2021-05-04 09:29:47
125811629,Leredde - Tolbiac,8,5,27,48.828876296639876,2.374438270926476,2021-05-04 09:35:03
39149651,Richard Lenoir - Place de la Bastille,13,6,30,48.8538327,2.3697222,2021-05-04 09:34:40
1057753858,Place Charles Michels,29,0,7,48.846401,2.28502,2021-05-04 09:35:18
42907187,Richard Lenoir - Voltaire,12,1,12,48.86164273877979,2.3727491497993474,2021-05-04 09:33:23
54000590,Croix Nivert - Square Saint-Lambert,14,2,29,48.8430515215905,2.295200452208519,2021-05-04 09:33:42
54000587,Mairie du 14ème,0,1,31,48.83254578122993,2.325492314994335,2021-05-04 09:29:56
27359295,Benoît Frachon - République,2,6,21,48.85230729014318,2.415605485439301,2021-05-04 09:32:32
82468690,Dutot - Place Alleray,0,2,53,48.83682609176588,2.307170109557766,2021-05-04 09:25:19
81212212,Jean Jaurès - Jules Jacquemin,1,2,21,48.88433053604843,2.4082902455152104,2021-05-04 09:29:42
653087914,Marne - Charles de Gaulle,3,3,21,48.815071719544434,2.4121668934822087,2021-05-04 09:26:15
41219552,Saint-Benoît - Jacob,13,6,4,48.85545136013941,2.3334722220897675,2021-05-04 09:29:52
43247025,Jardins d'Eole,0,2,18,48.8869703,2.3668488,2021-05-04 09:34:55
101738550,Didot - Place de Moro-Giafferi,0,1,21,48.8337,2.3215,2021-05-04 09:33:15
54000622,Davout - Volga,1,0,27,48.852919679957296,2.410522909779111,2021-05-04 09:33:50
82339935,Porte de la Muette,4,6,24,48.86302317841182,2.2687188170157406,2021-05-04 09:35:01
27414713,Landy - Heurtault,2,6,21,48.915096534520316,2.375951372087002,2021-05-04 09:34:11
54000564,Paradis - Hauteville,23,4,3,48.874999954666755,2.3522757401923404,2021-05-04 09:33:11
13912564,Bruant - Vincent Auriol,18,3,3,48.83484845292942,2.366826499627087,2021-05-04 09:34:50
1057366813,Hôtel de Ville,0,1,30,48.824363561288756,2.2131047397851944,2021-05-04 09:34:48
58311330,Place des Droits de l'Enfant,0,3,21,48.8274804,2.3319217,2021-05-04 09:33:34
100967498,Stalingrad - Rigollots,0,2,18,48.84997403844251,2.45557576417923,2021-05-04 09:33:19
27363337,Bréguet - Sabin,14,3,14,48.856931678257446,2.3706749462105408,2021-05-04 09:35:22
37879071,Paul Bodin - Clichy,9,2,23,48.89239614618928,2.317142598330975,2021-05-04 09:33:35
70903158,Raymond Poincaré - Place Victor Hugo,4,8,11,48.870306124369975,2.285074541420228,2021-05-04 09:34:20
41464928,Sèvres - Lecourbe,31,2,26,48.8447677,2.3110086,2021-05-04 09:35:17
54000619,Porte de Bagnolet,0,1,32,48.864707139122984,2.408344637349607,2021-05-04 09:32:33
43247738,Ruisseau - Ordener,0,0,35,48.89299462568024,2.340144887566567,2021-05-04 09:35:22
82332239,Ecoles - Carmes,11,1,22,48.848904447989405,2.3473486304283147,2021-05-04 09:34:21
75525462,Plantes - Moulin Vert,0,3,42,48.83005755305626,2.3232302069664006,2021-05-04 09:32:11
15462861,Crevaux - Bugeaud,1,1,28,48.870809428669546,2.281149007691853,2021-05-04 09:34:38
38407,Flandrin - Longchamp,6,7,28,48.86877849178477,2.274354539176829,2021-05-04 09:33:44
82554449,Porte Molitor,13,7,40,48.84524763511433,2.2569015249609947,2021-05-04 09:34:12
39535340,Charles Frérot - Albert Guilpin,11,2,13,48.8155839183714,2.3505029082298283,2021-05-04 09:33:35
54000555,Jean Mermoz - Champs-Elysées,23,7,2,48.86968985685174,2.310732454061508,2021-05-04 09:33:32
653089942,Poissonniers - Championnet,9,2,15,48.89543299733937,2.3530178144574165,2021-05-04 09:33:31
101008598,Reuilly - Place Felix Eboue,12,2,27,48.84030274499962,2.394630398715453,2021-05-04 09:31:38
1057373549,Gare RER les Grésillons,6,1,13,48.919898633572764,2.31458459136273,2021-05-04 09:35:08
66491388,Alfred de Vigny - Place du Général Brocard,2,2,29,48.87836138361425,2.305254448220567,2021-05-04 09:34:01
128841079,Cambon - Rivoli,21,9,6,48.866143390992,2.3251800647136633,2021-05-04 09:35:19
220504949,Grande Truanderie - Saint-Denis,24,3,2,48.8626302,2.3498075,2021-05-04 09:34:36
54000570,Place de la Nation - Picpus,12,0,23,48.84682168154762,2.400113046169281,2021-05-04 09:35:22
38060,Gare Montparnasse - Arrivée,8,2,33,48.843827994314886,2.3225811123847966,2021-05-04 09:34:53
7295,Chevreuse - Montparnasse,5,3,5,48.841739161230905,2.331552216736739,2021-05-04 09:35:13
27296946,Square Claude Bernard,4,12,14,48.89876016219984,2.375325746834278,2021-05-04 09:33:57
653143563,Henri Ravera - Gabriel Péri,4,4,22,48.79722273833844,2.302115857601166,2021-05-04 09:33:39
443153677,Perle - Vieille du Temple,3,4,29,48.8601346,2.3611206,2021-05-04 09:33:01
15308712,Jules Vallès - Charonne,8,1,13,48.85428437993525,2.384767457842827,2021-05-04 09:34:08
66505510,Epée de Bois - Mouffetard,8,1,54,48.841508690388835,2.350066713988781,2021-05-04 09:33:46
66491391,Claude Vellefaux - Hôpital Saint-Louis,8,1,23,48.87285913900304,2.370071706985146,2021-05-04 09:35:19
1062256852,Maxime Gorki - Louis Aragon,3,1,13,48.78909814728443,2.368387877941132,2021-05-04 09:31:40
1062245074,Roger Salengro - Général de Gaulle,24,1,2,48.820029010376956,2.4846760556101803,2021-05-04 09:34:36
201923447,Murat - Porte de Saint-Cloud,7,3,27,48.83750862621299,2.2577651962637906,2021-05-04 09:29:05
265201872,Bourdon - Pont Morland,20,0,29,48.8478103,2.3659356,2021-05-04 09:33:21
1062797394,Place de la Madeleine - Royale,13,0,12,48.86922805264812,2.3244211077690125,2021-05-04 09:35:16
