station_id,station_name,available_mechanical_bikes,available_electric_bikes,available_empty_docks,latitude,longitude,date
213688169,Benjamin Godard - Victor Hugo,0,1,34,48.865983,2.275725,2021-05-29 11:49:33
99950133,André Mazet - Saint-André des Arts,22,2,30,48.85375581057431,2.3390958085656166,2021-05-29 11:50:19
516709288,Charonne - Robert et Sonia Delauney,4,3,13,48.85590755596891,2.3925706744194035,2021-05-29 11:49:32
36255,Toudouze - Clauzel,2,1,18,48.87929591733507,2.3373600840568547,2021-05-29 11:50:08
37815204,Mairie du 12ème,7,0,23,48.84085531176338,2.3875549435615544,2021-05-29 11:50:08
100769544,Harpe - Saint-Germain,26,3,17,48.85151881501689,2.343670316040516,2021-05-29 11:51:20
85002689,Jourdan - Stade Charléty,2,4,54,48.81942833336948,2.343335375189781,2021-05-29 11:50:14
54000559,Jouffroy d'Abbans - Wagram,4,4,32,48.881973298351625,2.301132157444954,2021-05-29 11:51:07
85043758,Guersant - Gouvion-Saint-Cyr,2,0,27,48.88287775178599,2.287667370814871,2021-05-29 11:44:59
123095125,Alibert - Jemmapes,8,1,50,48.8710440519842,2.366104461987773,2021-05-29 11:49:09
251039991,Cassini - Denfert-Rochereau,1,2,22,48.83752583906732,2.336035408079624,2021-05-29 11:49:41
37874517,Saint-Sulpice,12,8,1,48.85165383178419,2.3308077827095985,2021-05-29 11:47:48
66491398,Le Brun - Gobelins,3,2,43,48.835092787823875,2.353468135133752,2021-05-29 11:51:08
210403080,Lacépède - Monge,5,2,16,48.84389286531899,2.3519663885235786,2021-05-29 11:50:45
210561800,Saint-Romain - Cherche-Midi,0,0,17,48.84708159081946,2.321374788880348,2021-05-29 11:46:23
209063434,André Karman - République,8,3,21,48.91039875761846,2.3851355910301213,2021-05-29 11:47:49
94555589,Pierre et Marie Curie - Maurice Thorez,5,1,21,48.81580226360801,2.376804985105991,2021-05-29 11:50:26
244498842,Bois de Vincennes - Gare,28,2,20,48.836022242886884,2.4708339950830287,2021-05-29 11:51:06
43195240,Silly - Galliéni,4,3,18,48.835583838705936,2.2325500845909123,2021-05-29 11:50:37
210405211,Beaux-Arts - Bonaparte,7,3,11,48.856451985395786,2.334851883351803,2021-05-29 11:50:33
501862076,Place Nelson Mandela ,1,2,19,48.862090937689715,2.196576297283173,2021-05-29 11:51:22
207633746,Grande Armée - Brunel,3,2,55,48.876116,2.288124,2021-05-29 11:51:04
210566542,Square Boucicaut,43,13,4,48.851296433665276,2.325061820447445,2021-05-29 11:50:44
437597018,Invalides - Duroc,14,7,8,48.8477924732952,2.3161920905113225,2021-05-29 11:50:21
210565680,Vaneau - Sèvres,12,2,21,48.84856323305935,2.3204218259345537,2021-05-29 11:50:36
210397939,Thouin - Cardinal Lemoine,0,2,15,48.84504716661511,2.3494647851273465,2021-05-29 11:51:27
82405965,Froment - Bréguet,18,5,20,48.8570414504784,2.37289470306807,2021-05-29 11:51:14
213682736,Morillons - Dantzig,10,2,41,48.83310149953933,2.299380004405976,2021-05-29 11:49:52
80101533,Chazelles - Courcelles ,9,0,26,48.879406604954,2.3034455627202988,2021-05-29 11:51:25
54000581,Croulebarde - Corvisart,8,5,21,48.830981659316855,2.3481646925210953,2021-05-29 11:50:28
599135701,Ramponeau - Belleville,0,1,43,48.871031137596006,2.3790568521139748,2021-05-29 11:47:35
13105968,Le Brix et Mesmin - Jourdan,2,1,18,48.82234096593411,2.327861653302471,2021-05-29 11:50:56
653208733,Romainville - Vaillant-Couturier,0,5,33,48.86785,2.446748,2021-05-29 11:48:58
907054879,Liberté - Vert-de-Maisons,9,7,4,48.79014780960843,2.43286281824112,2021-05-29 11:49:51
128986726,Boétie - Ponthieu,4,3,26,48.871417284354834,2.307678759098053,2021-05-29 11:51:18
129094535,Porte de Saint-Ouen - Bessières,7,3,32,48.89792240854517,2.32851451022192,2021-05-29 11:47:53
27415224,Bir Hakeim,15,2,16,48.853844054333514,2.289705348222022,2021-05-29 11:50:29
54000612,Cambrai - Benjamin Constant,3,3,37,48.89594736851349,2.381133802246315,2021-05-29 11:47:49
88230992,De Toqueville - Terrasse,0,5,25,48.882428,2.314002,2021-05-29 11:48:53
27415302,Michel-Ange - Parent de Rosan,6,3,16,48.840579923690115,2.2584119439125065,2021-05-29 11:51:14
102747146,Lagny - Victor Basch,0,1,25,48.84884147189881,2.426325418925233,2021-05-29 11:47:53
2515403527,Saint-Cloud - Hippodrome,4,3,22,48.85772148887421,2.2549109905958176,2021-05-29 11:49:13
653132534,Louis Lejeune - Barbès,1,5,19,48.81807418981508,2.3267009854316716,2021-05-29 11:42:26
506455295,Général Martial Valin - Pont du Garigliano,1,2,13,48.83823094269141,2.270506024360657,2021-05-29 11:50:58
1057149522,Rond-point du Dr Albert Schweitzer,1,2,19,48.78980918988166,2.3143940046429634,2021-05-29 11:44:23
210567545,Raspail - Varenne,5,0,13,48.85314781654488,2.3263905197381973,2021-05-29 11:51:27
653197324,Théâtre des Amandiers - Palais des sports,2,0,22,48.89264852683893,2.2136941552162175,2021-05-29 11:50:13
210408693,Vaugirard - Monsieur le Prince,16,6,4,48.848951441614176,2.3411329463124275,2021-05-29 11:44:29
42950839,Serrurier,0,1,17,48.8804934032465,2.39806417375803,2021-05-29 11:42:29
85123644,Pyrénées - Ménilmontant,0,0,26,48.8693268535238,2.395084574818611,2021-05-29 11:51:23
499303158,Jules Guesde - Pont du Port à l'Anglais,24,1,5,48.79628807093802,2.417212128639221,2021-05-29 11:47:59
2515085147,Italie - Tolbiac,3,5,13,48.82557229464416,2.3576171323657036,2021-05-29 11:47:40
27414512,Caire - Dussoubs,18,5,14,48.86785342111862,2.349364310503006,2021-05-29 11:50:34
210580039,Tour d'Auvergne - Rodier,0,0,16,48.879161,2.343698,2021-05-29 11:48:01
49474389,Artois - Berri,3,0,20,48.87393521240818,2.3064258322119713,2021-05-29 11:48:23
128940135,Marceau - Chaillot,5,2,14,48.86883394989261,2.2989967837929726,2021-05-29 11:46:48
35149611,Liard - Amiral Mouchez,0,2,12,48.8214169,2.342167,2021-05-29 11:51:18
210570888,Las Cases - Bourgogne,5,3,14,48.85909110474066,2.3185685276985173,2021-05-29 11:49:39
129107656,Félix Ziem - Armand Gauthier,2,1,22,48.88949630486821,2.333393658804396,2021-05-29 11:48:42
129088667,Jonquière - Docteur Paul Brousse,8,10,21,48.894799816683985,2.318705212173216,2021-05-29 11:51:18
214114469,Gare de Nogent-le-Perreux,19,12,1,48.83842553348809,2.493693307042122,2021-05-29 11:51:17
1057228658,Youri Gagarine - Karl Marx,3,6,13,48.78448485079149,2.35908430069685,2021-05-29 11:50:16
230873471,Octave Feuillet - Albéric Magnard,12,2,7,48.86106902949534,2.2730283066630363,2021-05-29 11:50:33
507934805,Ney - Porte de Clignancourt ,2,8,15,48.8978867,2.3458001,2021-05-29 11:50:47
205047993,Edgar Quinet - Raspail,1,1,43,48.83940266673835,2.32971478253603,2021-05-29 11:50:52
7254,Gay Lussac - Saint-Jacques,2,0,22,48.844730256132095,2.341923944866407,2021-05-29 11:44:01
129164969,Place Jean-Spire-Lemaître,14,1,36,48.8468428626593,2.452062070369721,2021-05-29 11:51:02
128989986,Place Georges Guillaumin,1,4,24,48.874750203956566,2.301771435325988,2021-05-29 11:51:28
129004826,Bellefond - Poissonnière,0,3,14,48.87759897050706,2.348463758826256,2021-05-29 11:51:25
518825709,Jean Oestreicher - Porte de Champerret,0,3,18,48.88655580065981,2.288640439510346,2021-05-29 11:49:43
128930462,Square Louis XVI,4,2,22,48.87320440102894,2.323658830743138,2021-05-29 11:49:38
911767210,Alexandre Parodi - Quai de Valmy,1,0,22,48.87935941942529,2.366596162319184,2021-05-29 11:50:24
54000565,Granges aux Belles,2,0,25,48.8761373390584,2.3680844979417,2021-05-29 11:51:19
1057296253,Regnault - Patay,39,5,19,48.82435782216384,2.377065159380436,2021-05-29 11:50:14
210581084,Gare Saint-Lazare - Place de Budapest,7,6,31,48.877753,2.327339,2021-05-29 11:49:50
210586093,Dunkerque - Rocroy,4,4,16,48.880726,2.351464,2021-05-29 11:48:02
102311820,Clignancourt - Ordener,0,1,33,48.891457726153774,2.348636478060487,2021-05-29 11:51:02
128887067,Ségur - d'Estrées,8,2,9,48.85141997898257,2.3097044974565506,2021-05-29 11:48:13
210574471,Abbeville - Faubourg Poissonnière,1,3,10,48.879223,2.349147,2021-05-29 11:48:05
72765603,Boulangers - Cardinal Lemoine,4,0,16,48.8462904,2.3521495,2021-05-29 11:46:14
210582921,Boudreau - Auber,11,1,2,48.87219,2.329423,2021-05-29 11:50:57
55927887,Gabriel Lamé,18,6,12,48.8351212784276,2.385534569621086,2021-05-29 11:50:52
369644630,Gare de l'Est - Faubourg-Saint-Martin,5,6,21,48.87564264747718,2.3594588041305546,2021-05-29 11:48:07
43255030,Pereire - Ternes,3,2,43,48.87973954830735,2.288012132048607,2021-05-29 11:50:46
129025451,Douai - Bruxelles,1,0,26,48.88320784122797,2.3308449949028507,2021-05-29 11:50:06
128920403,Gare Saint-Lazare - Isly,5,16,6,48.874777677621296,2.326515804784655,2021-05-29 11:51:11
323616530,Quai de l'Horloge - Pont Neuf,4,3,10,48.857058739111096,2.341798283943937,2021-05-29 11:51:01
208795867,Ambroise Rendu - Porte Brunet,0,1,16,48.883667,2.395733,2021-05-29 11:51:10
1062192012,Gare Rosny-Bois-Perrier,4,8,24,48.88115023337061,2.480436824262142,2021-05-29 11:42:21
6296,Institut de France,8,9,0,48.85761567856468,2.335831353037739,2021-05-29 11:51:27
521393180,Porte Pouchet-Bessières,1,2,19,48.8978765,2.3230632,2021-05-29 11:49:02
576188379,Vigée-Lebrun - Anselme Payen,0,2,22,48.838683941628375,2.3110422492027287,2021-05-29 11:49:32
128915891,Octave Gréard - Tour Eiffel,16,7,10,48.856502977695634,2.293178754328878,2021-05-29 11:50:02
82567101,Château - République,0,0,26,48.8629238005955,2.415503561496735,2021-05-29 11:44:17
129021753,Moncey - Blanche,1,0,16,48.88006587474148,2.3310810327529907,2021-05-29 11:50:47
457813746,Henri Barbusse - Stalingrad,1,8,7,48.814183748660554,2.2872862592339516,2021-05-29 11:51:19
303695607,Pont-Neuf - Quai du Louvre,0,0,30,48.8582958982873,2.3423714563250546,2021-01-22 22:50:04
35642049,Jemmapes - Ecluses Saint-Martin ,4,3,8,48.87748519186726,2.3660067468881607,2021-05-29 11:41:47
50191171,Thionville - Ourcq,1,2,21,48.88917613743794,2.3833653330802917,2021-05-29 11:50:23
102290754,Mairie du 17ème,1,4,19,48.88416184871573,2.322079431103719,2021-05-29 11:51:16
3906153622,Argenteuil - Voltaire,8,1,7,48.91864865955558,2.2814112156629562,2021-05-29 11:50:35
129087587,Legendre - Clichy,1,2,38,48.88896161855884,2.322528975094376,2021-05-29 11:49:15
213693511,Quai de la Seine,8,5,11,48.884492238407525,2.3703941702842717,2021-05-29 11:48:21
82379648,Lisbonne - Monceau,2,2,29,48.87745567681383,2.309694221419506,2021-05-29 11:50:13
95845524,Cité Riverin - Château d'Eau ,3,2,13,48.870702423554306,2.358739863900845,2021-05-29 11:49:42
230877798,Chartres - La Charbonnière,7,3,24,48.8847601,2.3534657,2021-05-29 11:49:02
66491397,Gare de Lyon - Place Louis Armand,46,11,2,48.8455150897939,2.3726498446286,2021-05-29 11:51:04
2515995748,Pesaro - Préfecture,0,1,21,48.89577046284005,2.223908342421055,2021-05-29 11:50:48
129014600,Rossini - Laffitte,4,1,28,48.87334627510507,2.337980867701675,2021-05-29 11:42:24
27363162,Ranelagh - Mozart,7,5,11,48.8554439,2.2704418,2021-05-29 11:47:40
128882438,Institut du Monde Arabe - Saint-Germain,18,2,20,48.84906329950134,2.3558086529374123,2021-05-29 11:51:24
210740080,Gare du Nord - Hôpital Lariboisière,4,4,40,48.881949,2.352339,2021-05-29 11:51:06
102324803,Pyrénées - Emmery,1,5,34,48.872010281270974,2.392039597034455,2021-05-29 11:45:03
80419347,Lagny - Auguste Blanqui,0,1,26,48.84922568052601,2.4218603968620305,2021-05-29 11:49:52
54000569,Saint-Ambroise - Parmentier,4,0,33,48.86214784454763,2.3772348091006275,2021-05-29 11:47:24
336511521,Place de Rhin et Danube,12,3,2,48.88192765861766,2.392586767673493,2021-05-29 11:51:22
129043651,Roquette - Thiéré,15,0,8,48.85507930579506,2.3733686318721463,2021-05-29 11:49:42
82562556,Exelmans - Versailles,12,5,32,48.84097491091973,2.264390252530575,2021-05-29 11:47:19
129048000,Saint-Maur - Roquette,5,2,39,48.858688774062955,2.383553994571467,2021-05-29 11:51:01
1062250686,11 Novembre 1918 - 8 Mai 1945,3,3,30,48.80889533774377,2.5382421165704727,2021-05-29 11:49:06
261987383,Place Du Général De Gaulle,0,1,25,48.8687591,2.4329931,2021-05-29 11:48:09
813544903,Amelot - Saint-Sébastien,11,2,16,48.86114216276092,2.367799618107727,2021-05-29 11:45:42
126050442,Pereire - Rennequin,5,3,15,48.88364782887555,2.2952447086572647,2021-05-29 11:46:36
27363489,Claude Decaen - Cannebière,5,0,22,48.83761417037952,2.397253782195704,2021-05-29 11:49:02
39296638,Berri - Haussmann,5,2,28,48.874746047357135,2.3082953318953514,2021-05-29 11:47:22
101763163,Desaix - Edgar Faure,3,4,5,48.852804604940296,2.293077029857222,2021-05-29 11:48:24
205938683,Delphine Seyrig - Général Leclerc,9,8,35,48.893923963057865,2.39790290594101,2021-05-29 11:51:01
210399835,Panthéon - Valette,8,17,13,48.84702057165222,2.3464982619671075,2021-05-29 11:49:52
1057324291,Cimetière de Montrouge,1,1,56,48.822009,2.322188699,2021-05-29 11:51:10
314829539,Charles de Gaulle - Beauté,11,13,25,48.83649602312711,2.479562651149885,2021-05-29 11:51:24
653133605,Gare RER - Canadiens,37,6,2,48.81995307955795,2.464176752459464,2021-05-29 11:49:38
3906094706,Redoute - Les Courtilles,24,1,6,48.92986719451888,2.283669635653496,2021-05-29 11:49:37
27414578,Notre-Dame-des-Champs - Stanislas,6,0,13,48.84479928858768,2.329337755887181,2021-05-29 11:51:08
80216231,Belidor - Gouvion-Saint-Cyr,0,0,24,48.88022154052015,2.2854680567979813,2021-04-24 23:43:27
508042092,Pyramide - Ecole du Breuil ,18,15,1,48.82237977153955,2.4586871266365056,2021-05-29 11:49:22
42603855,Liège - Moscou,0,0,16,48.8795431,2.3264628,2021-05-29 11:49:33
818302209,Mairie de Montreuil,4,10,38,48.86131452758348,2.440614402294159,2021-05-29 11:50:36
13718041,Square Simon Bolivar,1,2,21,48.8750898883217,2.3826304078102116,2021-05-29 11:45:12
265464297,Schoelcher - Raspail,1,3,46,48.83681733526843,2.3312794080411474,2021-05-29 11:49:29
1057392676,Rouget de Lisle,17,15,3,48.764615483395254,2.4071189761161804,2021-05-29 11:50:40
102309973,Cimetière de Montmartre,1,1,41,48.886472466141925,2.3328901827335358,2021-05-29 11:47:49
532054446,Richard Lenoir - Republique,14,2,42,48.8667175,2.3692541,2021-05-29 11:51:21
129034587,Récollets - Square Villemin,3,5,9,48.875034655883944,2.359801238597928,2021-05-29 11:44:57
586539770,Marne - Germain Dardan,1,5,16,48.81154270401601,2.303070724010468,2021-05-29 11:48:59
3906335682,Roger Salengro - Fontainebleau,5,7,13,48.814548697324845,2.36116636544466,2021-05-29 11:50:32
583539396,Anatole France - President Roosevelt,6,4,19,48.9155156,2.3814103,2021-05-29 11:51:07
101753100,Henry Farman,7,9,0,48.83372430280548,2.2713854536414146,2021-05-29 11:47:00
27415466,Jourdain - Place des Grandes Rigoles,0,1,21,48.87403113727167,2.38959476351738,2021-05-29 11:50:47
88140066,Rocher - Laborde,1,3,61,48.87590240712654,2.322616316378116,2021-05-29 11:48:29
66491385,Fontenay - Libération,2,2,21,48.84780306364685,2.445141971111298,2021-05-29 11:51:20
52393,Grands Moulins de Pantin,1,6,42,48.89738369720229,2.3959985375404362,2021-05-29 11:48:53
596813170,Cimetière,1,2,12,48.84706173362218,2.4787822365760808,2021-05-29 11:50:37
209057581,Gabriel Péri - Francisco Ferrer,2,3,15,48.88633710236977,2.407338917255402,2021-05-29 11:51:21
66491389,Place de la Reine Astrid,6,9,43,48.86492098253841,2.302549182385926,2021-05-29 11:50:13
596872103,Lucie Aubrac - Fort,1,3,27,48.818144834008976,2.271184623241425,2021-05-29 11:51:10
81081358,Pajol - Place Herbert,9,2,28,48.8927825,2.3635598,2021-05-29 11:50:06
210749865,Port-Royal - Hôpital du Val-de-Grâce,2,0,16,48.8376682728114,2.344813834660711,2021-05-29 11:50:08
535500589,Hôpital Européen Georges Pompidou ,15,2,47,48.83769531916335,2.275374233722687,2021-05-29 11:48:14
597245295,Concorde - Stalingrad,6,2,27,48.7985844,2.3821302,2021-05-29 11:51:09
583171360,Jean Marin Naudin - Stalingrad,2,7,21,48.805713897355375,2.320202328264713,2021-05-29 11:45:38
235513935,Carducci - Place Hannah Arendt,1,1,25,48.877436681515796,2.3860743641853337,2021-05-29 11:48:40
27206194,Saint-Jacques - Val de Grâce,2,0,17,48.8417514,2.3413893,2021-05-29 11:50:41
102323152,Manin - Carrières d'Amérique,4,0,16,48.88467214209463,2.3919698596000676,2021-05-29 11:51:18
82584215,Place Lafayette,17,5,38,48.829654975522296,2.263867557048798,2021-05-29 11:50:57
129060764,Victor Hugo - Jeanne Jugan,5,2,21,48.843949064031825,2.415081394834419,2021-05-29 11:45:43
828134511,Porte de Vanves,2,3,27,48.82801284944511,2.3056878894567485,2021-05-29 11:51:24
586649404,Conservatoire de Musique,8,6,11,48.77093586667601,2.4034014344215398,2021-05-29 11:51:16
76199461,Championnet - Vauvenargues,2,4,27,48.89401874744574,2.3319872841238976,2021-05-29 11:48:00
271426439,Buisson Saint-Louis - Saint-Maur,2,2,15,48.87174684930295,2.3722528328789854,2021-05-29 11:51:20
213684314,Fédération - Suffren,7,2,16,48.852828153442346,2.2978776320815086,2021-05-29 11:48:38
27363187,Place Albert Kahn,11,2,34,48.8957969797804,2.345585584134864,2021-05-29 11:46:19
230952057,Place Marcel Cachin,14,8,10,48.81411442356866,2.39090770483017,2021-05-29 11:51:08
42517412,Gambetta - Saint Fargeau,1,2,21,48.871244610447015,2.4039056897163396,2021-05-29 11:50:39
37815993,Mutualité,22,7,8,48.8482255727241,2.350287325680256,2021-05-29 11:49:37
213683101,Lecourbe - Jean Maridor,8,3,8,48.83796366147599,2.2877392172813416,2021-05-29 11:47:09
213684750,Grenelle - Violet,22,0,13,48.84993035512154,2.294612042605877,2021-05-29 11:49:12
129067920,Mouton Duvernet - Général Leclerc,7,0,32,48.831632518292565,2.3293121159076686,2021-05-29 11:50:56
2515049357,Erasme - Ulm,6,9,9,48.84264375274712,2.3445946723222733,2021-05-29 11:51:23
27364743,Marc Sangnier - Porte de Vanves,3,8,10,48.825218683556734,2.3107116669416428,2021-05-29 11:49:11
102314792,Etienne Jodelle - Saint Ouen,4,0,29,48.88794016394694,2.326124420314341,2021-05-29 11:43:37
35447568,Guy Môquet - Etienne Dolet,8,1,14,48.81527009991819,2.298078276995073,2021-05-29 11:49:25
27415736,Jean Jaurès - Presles,0,2,26,48.90713441498779,2.396005728053061,2021-05-29 11:50:56
583178525,Boissière - Etienne Dolet,0,2,19,48.876111,2.4677312,2021-05-29 11:46:43
2514995690,Chabanais - Petits Champs,8,3,19,48.86703740186721,2.336716018617153,2021-05-29 11:51:08
572566600,Edouard Tremblay - Julian Grimau,1,0,29,48.78138382511671,2.3723508417606354,2021-05-29 11:42:43
82387816,Bertie Albrecht - Hoche,4,3,25,48.87614039826388,2.301303138307601,2021-05-29 11:51:26
213679512,Sibelle - Alésia,0,3,22,48.826701758539215,2.3384983465075493,2021-05-29 11:50:09
213685090,Cevennes - Bergers,19,0,10,48.84240765130395,2.281037718057633,2021-05-29 11:51:06
301841024,Molière - République,4,4,22,48.81111581390707,2.3145738624448158,2021-05-29 11:50:53
213676294,Chevaleret - Tolbiac,10,1,10,48.82941,2.375934,2021-05-29 11:47:34
85147829,Hôtel de Ville de Boulogne Billancourt,12,3,11,48.83495885166784,2.2416803240776066,2021-05-29 11:50:12
588452142,Hoche - Jean Lolive,3,2,19,48.89110239200789,2.402843534946442,2021-05-29 11:50:11
213681356,David Weill - Parc Montsouris,1,4,17,48.821092374256104,2.333725690841675,2021-05-29 11:50:22
213685514,Place Robert Guillemard,7,0,17,48.836191728066666,2.2811267160086417,2021-05-29 11:51:05
66491402,Marcadet - Barbès,2,5,29,48.89045112096476,2.349057392968696,2021-05-29 11:50:48
2515351285,Vaugirard - Place Henri Rollet,4,2,21,48.83659148147257,2.2930556908249855,2021-05-29 11:49:20
102329800,Marcelin Berthelot,14,2,11,48.8415473058801,2.233161628246308,2021-05-29 11:49:37
129038848,Enghien - Faubourg Poissonnière,0,0,16,48.87242006305313,2.348395236282807,2021-02-21 21:15:22
54000625,Repos - Cimetière du Père Lachaise,0,1,32,48.859358523592554,2.389613136684456,2021-05-29 11:43:15
213911772,François Debergue - Croix de Chavaux,2,3,51,48.857421708072074,2.437578141689301,2021-05-29 11:44:56
129132870,Nationale - Place Jules Guesde,5,1,17,48.82753962462998,2.2416052222251897,2021-05-29 11:51:23
620403530,Gabriel Péri - Danielle Casanova,1,6,13,48.790114,2.4025777,2021-05-29 11:46:43
66491378,Lakanal - Commerce,15,3,35,48.84442462786544,2.294059172272682,2021-05-29 11:51:09
631773910,Carnot - Pâquerettes,13,7,6,48.79592939432515,2.4261841177940373,2021-05-29 11:51:04
54000628,Claude Debussy - Marc Bloch,8,4,16,48.91038818051166,2.3117771744728093,2021-05-29 11:51:05
611152693,Tertres - Fontaine,0,2,26,48.787553654715644,2.306235730648041,2021-05-29 11:41:41
235241110,Gare Rer de Fontenay sous Bois,7,3,51,48.8436279,2.4630465,2021-05-29 11:49:19
613737748,Raspail - Manufacture des Oeillets,15,2,15,48.8094458,2.3903009,2021-05-29 11:51:18
41498023,Oberkampf - République,1,2,21,48.8654533,2.3760261,2021-05-29 11:51:24
632086890,Place de l'Eglise,23,2,3,48.791922819921815,2.395057752728462,2021-05-29 11:51:24
213945171,Noisy le Sec - Jean-Baptiste Clément,0,0,22,48.87451538963655,2.415283620357514,2021-05-29 11:45:03
129093478,Place de la Porte de Champerret,1,1,26,48.88561741628322,2.290781411279206,2021-05-29 11:44:31
463297497,Marcelle - Thalie,0,1,19,48.8835462,2.4137883,2021-05-29 11:45:35
213875650,Henri Ste-Claire Déville - Paul Héroult,2,1,20,48.892663,2.172411,2021-05-29 11:42:02
245187072,Louis Lumière - Porte de Bagnolet,3,3,14,48.86431136000005,2.4105210229754443,2021-05-29 11:50:09
129144878,Paris - Emile Zola,5,9,16,48.854898095789295,2.4186685681343083,2021-05-29 11:51:23
27415665,Jean Jaurès - Salvador Allende,0,2,41,48.821475594736775,2.3026576638221745,2021-05-29 11:49:13
593238093,Victoire - Chaussée d'Antin,3,1,20,48.875065791004396,2.3316738009452824,2021-05-29 11:50:38
102331767,Victor Hugo - Galliéni,7,4,22,48.83802015441127,2.2460845112800603,2021-05-29 11:47:46
1062671597,Cossonnerie - Sébastopol,16,2,6,48.86132665908402,2.349419631063938,2021-05-29 11:49:13
37791,Richard Lenoir - Jean-Pierre Timbaud,10,3,23,48.86580427668637,2.369337074966926,2021-05-29 11:51:22
50156117,Legendre - Dulong,0,1,22,48.885325169402904,2.316423766314984,2021-05-29 11:48:09
35908,Cujas - Saint-Michel,4,3,11,48.84819134858432,2.34183165485398,2021-05-29 11:45:00
15462236,Galilée - Kléber,8,1,24,48.86741186571367,2.290781380114821,2021-05-29 11:51:27
1765749389,Karl Marx,0,1,15,48.784527937293184,2.3646667979455587,2021-05-29 11:49:59
210744286,Chemin Vert - Saint-Maur,2,1,42,48.86112461407359,2.381299026310444,2021-05-29 11:46:52
101024234,Quai Panhard et Levassor,10,0,46,48.82837482809675,2.384273745805574,2021-05-29 11:51:10
213992316,Square du Théâtre du Garde-Chasse,0,0,50,48.881287375060616,2.420119643211365,2021-05-29 11:51:15
213694482,Botzaris - Parc des Buttes Chaumont,1,0,19,48.877951,2.381464,2021-05-29 11:48:59
39799329,Faubourg Montmartre - La Fayette,4,1,30,48.87525454905335,2.340853661298752,2021-05-29 11:51:14
129011497,Rochechouart lamartine,3,6,15,48.876719895109,2.344393021853951,2021-05-29 11:50:48
101743895,Joseph Liouville - Croix Nivert,5,1,58,48.844835471244416,2.297508493065834,2021-05-29 11:46:59
213691848,Place Madeleine Daniélou,7,1,34,48.883498,2.282015,2021-05-29 11:50:56
210396518,Estrapade - Ulm,0,1,15,48.84512772828039,2.3454568170361734,2021-05-29 11:50:37
97677210,Parmentier - République ,2,0,47,48.8644954,2.3750124,2021-05-29 11:46:24
875078767,Lieutenant Chauré - Etienne Marey,0,1,19,48.86746195408435,2.405970990657807,2021-05-29 11:51:14
213683992,Cauchy - Cévennes,41,3,7,48.8433725710224,2.275132834911347,2021-05-29 11:51:07
102338493,Larmeroux - Baudelaire,3,5,22,48.816939911291605,2.280989480484553,2021-05-29 11:48:54
54000601,Jean-François Lépine - Stephenson,1,2,19,48.88611466796807,2.356855627529275,2021-05-29 11:50:48
27362896,Beffroy,1,5,20,48.886591074487995,2.261394560337067,2021-05-29 11:41:40
213687140,Molitor - Chardon-Lagache,15,4,15,48.84520880183234,2.2656840831041336,2021-05-29 11:46:39
235599121,Général De Gaulle - Alouette,2,4,20,48.839109,2.4175664,2021-05-29 11:48:23
213680917,Abbé Carton - Plantes,1,2,22,48.827673823165846,2.320918142795563,2021-05-29 11:49:51
1057774603,Marie-Georges Picquart - Pereire,4,3,25,48.88863669349711,2.3111706599593163,2021-05-29 11:51:03
213688462,Sablons - Georges Mandel,1,1,36,48.863875,2.28189,2021-05-29 11:51:05
102749572,Gare RER de Vincennes,36,10,5,48.847563015126106,2.433383166790009,2021-05-29 11:50:51
549876068,Villette - Belleville,2,3,43,48.872687731400255,2.3764613270759587,2021-05-29 11:49:24
390212609,Théophile Gautier - François Millet,9,2,19,48.85034821320644,2.273029983043671,2021-05-29 11:47:35
63498079,Marché Secrétan,1,5,20,48.88125496379482,2.373463287949562,2021-05-29 11:51:17
210573120,Hoche - Tilsitt,7,4,22,48.87483645783703,2.297132313251496,2021-05-29 11:43:35
213936755,Edouard Vaillant - Galliéni,0,0,49,48.85846288166117,2.4147954583168034,2020-08-14 04:12:17
39254792,Mairie du 11ème,11,3,36,48.858925,2.3789759,2021-05-29 11:51:27
1558958733,Arche - Léonard de Vinci,2,0,25,48.89790972494496,2.2383723043644914,2021-05-29 11:46:12
2515802454,Charles de Gaulle - Sablonville,5,0,21,48.87991924860035,2.2763770446181297,2021-05-29 11:51:12
648227675,Auguste Cain - Jean Moulin,2,3,35,48.82577028927573,2.3210415244102482,2021-05-29 11:48:30
42566291,Miromesnil - La Boétie,6,1,28,48.87372241291653,2.315848097205162,2021-05-29 11:46:42
1062206433,Chemin Vert - Fraternité,0,2,17,48.877141208359035,2.4461565166711807,2021-05-29 11:50:13
129032910,Marseille - Beaurepaire,15,8,31,48.871624306962985,2.3639265082738348,2021-05-29 11:51:26
237624030,Mathurins - Auber,16,16,3,48.872988840743595,2.3294984212276404,2021-05-29 11:48:30
647826568,Saint-Germain - Thenard,13,3,15,48.850571,2.3471015,2021-05-29 11:51:23
54000577,Arago - Glacière,1,2,24,48.83486054775774,2.3445770524322067,2021-05-29 11:47:57
54001024,Parmentier - Abel Rabaud,0,1,52,48.86921273836114,2.371688821240712,2021-05-29 11:50:39
94250567,Mairie d'Ivry-sur-Seine,45,0,8,48.81057120969284,2.3842826485633855,2021-05-29 11:51:09
129078200,Parc Georges Brassens - Brancion,3,0,26,48.83227829269761,2.3022570088505745,2021-05-29 11:49:30
649888071,Place Paul Eluard,7,7,5,48.7672039733195,2.4144977331161503,2021-05-29 11:42:59
82563707,Exelmans - Michel-Ange,6,1,26,48.84309486651855,2.2597770800669053,2021-05-29 11:49:57
129143598,Pierret - Madrid,1,1,26,48.882976576876565,2.260125767248034,2021-05-29 11:51:09
213690847,Reims - Raymond Pitet,16,2,19,48.8888,2.296319,2021-05-29 11:49:59
102333275,Saint-Vincent - Verdun,15,2,17,48.819211549234495,2.254007756710053,2021-05-29 11:50:22
640629438,Aristide Briand - Gare de Bagneux,3,0,19,48.79387269664978,2.321148812770844,2021-05-29 11:41:42
27415512,Parc Roger Salengro,31,1,4,48.905303858641844,2.310559451580048,2021-05-29 11:50:49
27363362,Seine - Flandre,2,2,15,48.886785741479684,2.3746193200349808,2021-05-29 11:50:24
210746090,Grand Prieuré - Crussol,2,3,43,48.86466062793517,2.369226553182906,2021-05-29 11:49:23
213957917,Wilson - Métallurgie,5,4,19,48.909423010092326,2.3584435880184174,2021-05-29 11:46:36
54000626,Madame de Sanzillon - Mozart,5,5,12,48.90379820774301,2.3187401890754704,2021-05-29 11:51:24
6399,Hautpoul - Jean Jaurès,1,4,27,48.88639367943585,2.386541454435452,2021-05-29 11:50:16
27414841,Square d'Anvers,3,0,31,48.882633484310816,2.344884406212207,2021-05-29 11:51:18
82253759,Mairie du 7ème,6,2,18,48.8577967,2.3192664,2021-05-29 11:51:28
82457375,Volontaire - Lecourbe,5,1,25,48.8435137879902,2.3065522313117985,2021-05-29 11:51:17
54000609,Laumière - Petit,1,3,30,48.88467368538326,2.380039058625698,2021-05-29 11:50:26
82328045,Victoria - Place du Chatelet,6,3,12,48.85799259152685,2.3469167947769165,2021-05-29 11:50:53
55664548,Charonne - Faubourg Saint-Antoine,27,4,2,48.85219190969573,2.3740932717919354,2021-05-29 11:48:32
214134714,Gare Arcueil - Cachan,2,2,22,48.799824,2.328171,2021-05-29 11:51:14
214139374,Gare RER de Gentilly,0,1,29,48.814280450380224,2.3410347104072575,2021-05-29 11:42:10
213702608,Boyer - Ménilmontant,0,0,19,48.86889516267913,2.3919824145634565,2021-05-29 11:42:06
559507144,Place Jean Ferrat,4,2,19,48.8184945213025,2.3744174838066106,2021-05-29 11:44:26
101740379,Boulard - Daguerre,1,3,41,48.83446472680611,2.3293386027216907,2021-05-29 11:45:09
213694069,Flandre - Alphonse Karr,1,1,24,48.89465,2.381868,2021-05-29 11:44:12
213700358,Villiers de l'Isle Adam - Pyrénées,0,0,20,48.867362,2.396222,2021-05-29 11:44:34
653063170,Place de la Porte de Paris,2,1,36,48.93009363207303,2.3564037680625916,2021-05-29 11:46:05
3906215030,Place Amédée Gordini - Lefebvre,2,2,34,48.83061737745046,2.2920634208276174,2021-05-29 11:51:20
468843711,Saint Georges - d'Aumale,6,3,14,48.87778639599673,2.337429821491241,2021-05-29 11:50:17
129151834,Stalingrad - Désiré Chevalier,0,1,41,48.85670169739857,2.445072233676911,2021-05-29 11:42:35
237041013,Saint-Jacques - Soufflot,4,7,8,48.8465255,2.343099,2021-05-29 11:51:10
54000553,Marignan - Champs-Elysées,7,3,10,48.869495661232406,2.306613813900307,2021-05-29 11:51:13
653200142,Hôtel de Ville de Nanterre,12,1,25,48.892371898250424,2.205548956990242,2021-05-29 11:50:12
650091839,Victor Hugo - Ecoles,8,14,3,48.80476007936134,2.4180373930262093,2021-05-29 11:50:24
362869414,Hôpital Bégin,7,3,16,48.84571672113014,2.4272462725639348,2021-05-29 11:49:25
49859500,Charenton - Diderot,13,2,3,48.84617146118711,2.3793068155646324,2021-05-29 11:50:26
100859941,Raspail - Bac,26,6,20,48.855628721100935,2.3256602883338933,2021-05-29 11:50:28
49368561,Jules Ferry - Faubourg du Temple Paris,5,1,52,48.868397,2.3678933,2021-05-29 11:48:05
42743053,Stephenson - Doudeauville,0,3,33,48.888537048944826,2.3561610281467438,2021-05-29 11:50:18
213699913,Place de l'Édit de Nantes,1,3,26,48.88879,2.3785,2021-05-29 11:49:00
4329844165,Tristan Tzara -  Tchaïkovski,3,1,28,48.89490221746837,2.3648490384221077,2021-05-29 11:42:08
378626842,Anatole France - Louise Michel,13,5,32,48.88873214926474,2.2881576418876652,2021-05-29 11:51:14
478952881,Boulets - Voltaire,2,0,22,48.85218705621031,2.389030158519745,2021-05-29 11:50:34
933214552,Guynemer - Séverine ,6,1,19,48.83091743371036,2.2790706530213356,2021-05-29 11:51:03
39217683,Alfred Roll - Berthier,1,0,28,48.88780857052871,2.30009529817631,2021-03-11 02:07:09
210090269,Jean Macé - Faidherbe,32,8,23,48.85337548425958,2.3828620836138725,2021-05-29 11:51:12
376664868,Gaston Roussel - Commune de Paris,4,9,17,48.89432034553156,2.432552274419542,2021-05-29 11:51:22
2515927759,Stalingrad - Germaine Tailleferre,3,2,23,48.80257200481316,2.3786691203713417,2021-05-29 11:50:38
205955605,Bienfaisance - Place de Narvik,2,0,34,48.87660163459077,2.3129771277308464,2021-05-29 11:45:36
27414945,Montgallet - Charenton,5,4,7,48.84264777870052,2.386164927813738,2021-05-29 11:47:48
38263504,Place Jacques Madaule,8,4,13,48.8239337873086,2.2606918215751652,2021-05-29 11:50:19
250061205,Quai d'Orsay - Invalides,0,0,18,48.863096900140626,2.316989621020396,2021-01-23 13:02:41
66491370,Jacques Callot - Mazarine,5,3,20,48.85528017533187,2.337574325501919,2021-05-29 11:47:15
66491392,Parmentier - Hôpital Saint-Louis,5,1,37,48.87137987425661,2.369896383666685,2021-05-29 11:49:59
353462947,Richard Wallace - Place du 8 Mai 1945,19,3,8,48.87866794788021,2.2420343756675725,2021-05-29 11:49:57
1559700274,Square Gilbert Thomain,12,3,5,48.90717373809284,2.2695400938391685,2021-05-29 11:49:26
338762459,Edouard Poisson - Victor Hugo,14,3,15,48.91113914952997,2.3792722821235657,2021-05-29 11:49:48
213688824,Faustin Hélie - Desbordes-Valmore,0,0,33,48.859403,2.276522,2021-05-29 11:48:19
82337423,Varenne,6,10,30,48.8572026618033,2.315277121961117,2021-05-29 11:51:16
66491404,Flandre - Riquet,2,2,17,48.888013281448345,2.373759595522922,2021-05-29 11:50:35
652120758,Place de la Porte de Châtillon,4,2,53,48.8242469,2.3186306,2021-05-29 11:44:32
501318622,Montreuil - Gonnet,1,2,21,48.85050056492107,2.389085628786445,2021-05-29 11:47:06
66491393,Dupleix - du Guesclin,37,3,7,48.85147910413369,2.296709530055523,2021-05-29 11:51:00
323486248,Montgallet - Reuilly,9,4,3,48.844291,2.3896481,2021-05-29 11:50:28
341388492,Place des Ternes,5,5,36,48.878438631226516,2.297727763652802,2021-05-29 11:50:58
1062223873,Ancien Canal - Hélène Brion,9,6,8,48.89484799296163,2.4188338592648506,2021-05-29 11:47:54
49085250,Departement - Pajol,0,3,16,48.886674849730184,2.3613611608743668,2021-05-29 11:46:53
376526598,Mairie des Lilas,1,1,45,48.8792834,2.4160182,2021-05-29 11:50:12
27071684,Porte de Vincennes,3,1,29,48.846454,2.415514,2021-05-29 11:46:07
2515907297,Pasteur - Gambetta,4,3,12,48.84572797384512,2.4236011505126953,2021-05-29 11:51:21
66491401,Fragonard - Porte de Clichy,11,5,40,48.89415563341899,2.314389310777188,2021-05-29 11:51:04
985828965,Place de Verdun,34,3,3,48.8202823,2.473775,2021-05-29 11:51:06
54000597,Bayen - Pereire,0,0,21,48.881804409079656,2.2921088710427284,2021-05-29 11:44:30
570185777,Gare de Courbevoie,2,4,30,48.8993867,2.2506506,2021-05-29 11:51:05
470807791,Jardin d'Acclimatation,3,3,27,48.878772242510465,2.270772233605385,2021-05-29 11:46:29
82445192,Gare Montparnasse - René Mouchotte,13,23,3,48.83920384329242,2.320883944630623,2021-05-29 11:48:11
2515658032,Clignancourt - Sofia,0,2,17,48.88511992309783,2.34719488842051,2021-05-29 11:50:35
568135465,Paul Vaillant Couturier - Chaptal,4,2,33,48.89347957618252,2.277525365352631,2021-05-29 11:49:29
567884788,Vincent Auriol - Louise Weiss,2,2,18,48.83400193550147,2.370388805866242,2021-05-29 11:51:13
214102967,Gare de Laplace,9,2,32,48.80893199114179,2.3349460959434514,2021-05-29 11:43:01
82417874,Alexandre Dumas - Voltaire,6,1,52,48.85288867036487,2.389147640809553,2021-05-29 11:51:05
102319838,Quai de la Loire - Jean Jaurès,2,5,9,48.88339733854529,2.371074522980134,2021-05-29 11:49:34
82423726,Gare de Lyon - Roland Barthes,55,10,3,48.84395729494058,2.3790882155299187,2021-05-29 11:51:06
652192395,Route de Sèvres - Porte de Bagatelle,19,7,39,48.87525984132485,2.249415814876557,2021-05-29 11:50:33
571923059,Bordier - Félix Faure,2,6,40,48.90390751882016,2.3830059170722966,2021-05-29 11:45:13
66491405,Charonne - Avron,4,7,16,48.85160266522164,2.398403047037931,2021-05-29 11:51:28
54000635,Félix Faure - Sadi Carnot,1,0,32,48.90812110228388,2.378623187541962,2021-05-29 11:45:56
54000544,Jussieu - Fossés Saint-Bernard,6,3,30,48.84718551002347,2.3534858599305153,2021-05-29 11:49:48
1062179194,18 juin 1940 - Buzenval,1,4,20,48.868807,2.185428,2021-05-29 11:46:33
1063017616,Mairie de La Garenne Colombes,4,3,15,48.90663823468682,2.24679596722126,2021-05-29 11:47:23
378648513,Jean Colly - Tolbiac,6,1,29,48.827817291597846,2.3705490678548813,2021-05-29 11:51:07
27278603,Porte de la Villette,5,5,13,48.89835196548483,2.386150136590004,2021-05-29 11:51:12
13497763,Ouest - Château ,1,3,19,48.83617286014242,2.319392143923804,2021-05-29 11:49:36
653042442,Place aux Étoiles,3,3,34,48.91835629408464,2.3523425683379173,2021-05-29 11:51:18
49807107,Flandrin - Henri Martin,0,0,18,48.8643275,2.2724174,2021-05-29 11:51:20
82450803,Square Cambronne,9,2,48,48.847566545259745,2.3025691509246826,2021-05-29 11:50:06
210747224,Pirogues de Bercy - Libourne,2,2,45,48.832308,2.38637,2021-05-29 11:51:13
210568512,Assemblée Nationale,12,4,47,48.86141101465194,2.320121418520769,2021-05-29 11:50:18
213691542,Porte Maillot - Pereire,7,4,40,48.877775,2.284444,2021-05-29 11:51:27
357409723,Place Violet,4,1,25,48.84487893836502,2.2905756533145905,2021-05-29 11:48:52
2515855808,Madeleine Vionnet,6,4,24,48.90251907406377,2.37408958375454,2021-05-29 11:49:46
384370499,Place Charles Vallin,6,2,18,48.83552381204077,2.302598655223847,2021-05-29 11:51:28
49403716,Commandant Rivière,8,4,14,48.872933,2.309796,2021-05-29 11:50:11
85165045,Place Jean-Baptiste Clément,11,12,1,48.81240466867336,2.3617091774940495,2021-05-29 11:51:20
27363103,Porte d'Auteuil,8,7,18,48.8479394142243,2.2608396783471107,2021-05-29 11:49:20
27415179,Sarrette - Général Leclerc,4,0,18,48.82503085292528,2.326412869398186,2021-05-29 11:50:48
54000571,Dugommier,14,2,33,48.8388110488154,2.38965779542923,2021-05-29 11:51:00
85145704,Réunion - Avron,19,0,7,48.852566752033766,2.403928068708116,2021-05-29 11:44:27
653044270,Claude Bernard - Arbalète,3,2,12,48.83976676978202,2.347510904073715,2021-05-29 11:47:43
26958435,Square des Saint-Simoniens,0,1,24,48.8701796,2.3967273,2021-05-29 11:49:51
6385,Petit - Manin,7,2,13,48.88650687534334,2.3938155401308374,2021-05-29 11:47:16
213857398,Gare de Clamart,0,1,13,48.81383535598703,2.272278964519501,2021-05-29 11:44:19
82550925,Place des Marseillais,8,2,27,48.82663907252554,2.4059280753135686,2021-05-29 11:50:05
27363096,Charenton - Wattignies,15,0,18,48.83667579640627,2.391795855555629,2021-05-29 11:51:26
210753033,Gare d'Austerlitz,9,3,1,48.842524,2.364044,2021-05-29 11:51:26
129119449,Ménilmontant - Pelleport,0,1,18,48.87068263384462,2.398959602331646,2021-05-29 11:48:23
475524450,Chanzy - Sud-Est,10,4,11,48.888912037698766,2.195632159709931,2021-05-29 11:51:13
653048150,Jussieu - Guy de la Brosse,8,6,26,48.845665,2.355653,2021-05-29 11:48:30
244400797,Jean Lolive - Parc Stalingrad,2,0,21,48.89206174403158,2.4091735482215886,2021-05-29 11:48:59
213922790,Champeaux - Gallieni,0,6,43,48.864459134684644,2.4161778017878532,2021-05-29 11:48:34
129001431,Courcelles - Place des Ternes,3,2,26,48.878199928923124,2.2992860188665043,2021-05-29 11:49:52
473204291,Victor Hugo - Magasins Généraux,1,1,32,48.903281401126755,2.368072383105755,2021-05-29 11:47:52
653203262,Parc Pierre Lagravère,8,4,18,48.92650488131725,2.239069678491417,2021-05-29 11:44:08
406806401,Guichet - Jean Jaurès,18,3,7,48.905169868129036,2.3023840785026555,2021-05-29 11:51:09
85143075,Evariste Galois,2,5,23,48.87308753734472,2.4133380129933357,2021-05-29 11:47:43
1063035479,Parvis Robert Schuman - Roger Salengro,0,3,21,48.812657470558754,2.1921751275658607,2021-05-29 11:49:37
82571110,Verdun - Place Henri IV,5,4,17,48.870797375639214,2.2277003154158592,2021-05-29 11:51:20
27399735,Ernest Renan - Parc des Expositions,34,6,10,48.83089757010408,2.2853584215044975,2021-05-29 11:51:20
54000582,Edgar Quinet - Gaité,18,6,3,48.84116092896631,2.32459545135498,2021-05-29 11:51:26
217235307,Place Carnot,3,0,22,48.85593932186797,2.441531717777252,2021-05-29 11:50:14
210748575,Gravelle - Route du Bac,5,1,45,48.824407,2.418455,2021-05-29 11:50:28
214123470, Place Léon Gambetta,12,0,14,48.81461250235386,2.4029293656349187,2021-05-29 11:49:54
129086648,Ceinture du Lac Inferieure - Saint-Cloud,10,1,31,48.86218070933143,2.2617871686816216,2021-05-29 11:47:40
217572769,Anatole France - Jean Lolive,8,11,9,48.8949922,2.4253764,2021-05-29 11:50:41
214298601,Boyer-Barret - Raymond Losserand,2,0,21,48.83329880233322,2.3173383995890617,2021-05-29 11:50:55
129125489,Piat - Parc de Belleville,1,0,20,48.87195626635528,2.384981390278095,2021-05-29 11:49:40
653046029,Place Valhubert,19,6,12,48.844182577315166,2.3640366643667217,2021-05-29 11:51:01
214122655,Lagny - Joffre,10,2,18,48.84930687084088,2.417949736118317,2021-05-29 11:46:12
15461933,Parc Monceau,1,2,15,48.88107791412864,2.3095492646098137,2021-05-29 11:49:42
43155320,Porte d'Orléans,0,0,48,48.8227639,2.3249313,2021-05-29 11:51:06
82458977,Place Falguière,2,3,18,48.83629973941847,2.3104464635252953,2021-05-29 11:49:01
214146056,Vignerons - Minimes,5,3,21,48.841486,2.430793,2021-05-29 11:51:27
129077035,Emeriau - Place de Brazzaville,46,5,0,48.850785261674964,2.2871585190296173,2021-05-29 11:51:25
221047138,Pierre et Marie Curie - Julien Grimau,0,1,17,48.870714014863225,2.424097023904324,2021-05-29 11:47:10
35196898,Gare d'Austerlitz - Quai Saint-Bernard,6,2,19,48.84369030863996,2.3657163977622986,2021-05-29 11:51:01
15308782,Sommerard - Saint-Jacques,22,3,9,48.850310432924466,2.345015835298588,2021-05-29 11:50:28
216473073,Tardieu - Chappe,2,4,12,48.88414675978186,2.3418454080820084,2021-05-29 11:50:19
37521,Petites Ecuries - Faubourg Poissonnière,3,3,12,48.87397217237368,2.348388757504776,2021-05-29 11:46:36
82421994,Gare de Bercy,19,6,10,48.839794573905685,2.382606603205204,2021-05-29 11:50:42
27033125,Pierre Ginier - Clichy,2,3,11,48.8867667,2.326228,2021-05-29 11:48:38
215495494,Batignolles - Place de Clichy,3,2,41,48.88347453575669,2.326493114233017,2021-05-29 11:47:55
129103849,Francoeur - Marcadet,9,1,10,48.89104123261663,2.340014585442034,2021-05-29 11:49:51
1057009034,Henri Chevreau - Couronnes,9,2,16,48.87033205312931,2.388777695596218,2021-05-29 11:49:59
82334007,Pascal - Claude Bernard,8,0,41,48.839061952159746,2.3499782010912895,2021-05-29 11:51:24
85008390,Grenelle - Dr Finlay,0,0,71,48.851315406715976,2.2919502854347233,2021-03-29 09:17:46
2515976231,Université,1,6,13,48.901365,2.212693,2021-05-29 11:48:28
216039437,Lamennais - Washington ,0,3,23,48.87352990026496,2.303444892168045,2021-05-29 11:51:22
129130397,Pierre Grenier - Pont de Billancourt,9,1,11,48.8258020742942,2.2487989068031315,2021-05-29 11:41:31
54000634,Bineau - Louise Michel,7,1,17,48.88666162206972,2.2843274474143986,2021-05-29 11:48:21
419381597,Professeur René Leriche - Général Leclerc ,8,3,39,48.90782845483013,2.307887971401215,2021-05-29 11:50:15
434419150,Bara - Henri Farman,15,4,17,48.833218027457846,2.2677567601203923,2021-05-29 11:50:43
54000548,Quai Voltaire,27,4,1,48.85894298617901,2.331418204714572,2021-05-29 11:51:28
54000595,Navier - Epinettes,4,1,30,48.89587780769155,2.3226776719093327,2021-05-29 11:51:22
426772876,Ledru-Rollin - Charonne,17,5,10,48.85345855607243,2.3772463581947094,2021-05-29 11:51:11
74620630,Parc de Belleville - Julien Lacroix,1,1,24,48.8703459,2.3842214,2021-05-29 11:51:26
653129412,Vladimir Ilitch Lénine - Andrée Chedid,5,3,22,48.813199499999044,2.3321458697319035,2021-05-29 11:51:26
129095489,Batignolles - Abel Truchet,1,2,26,48.88310390458221,2.323834749088381,2021-05-29 11:51:04
82421013,Charenton - Place du Col Bourgoin,21,3,12,48.84486731955409,2.382578935054453,2021-05-29 11:51:08
213686196,Lauriston - Copernic,0,0,19,48.86926,2.289918,2021-01-08 06:44:26
129134084,Morice - Général Leclerc,0,2,23,48.90245471981591,2.3128929734230046,2021-05-29 11:47:57
129036192,Gare de l'Est - Verdun,4,8,2,48.87615605427147,2.360914908320552,2021-05-29 11:46:05
210754072,Place Jean Delay,7,0,28,48.823316,2.354336,2021-05-29 11:49:10
419991048,Pont de Levallois-bécon ,5,4,41,48.8984179,2.2791311,2021-05-29 11:50:57
2820744873,Pierre Larousse - Raymond Losserand,7,2,21,48.83059564231877,2.3119183257222176,2021-05-29 11:51:19
213676825,Pitié-Salpêtrière,6,1,44,48.83748810318667,2.365213818848133,2021-05-29 11:50:28
15299574,Charles Delescluze,27,1,20,48.85242200848887,2.380632497370243,2021-05-29 11:43:40
41566122,Vasco de Gama,10,2,42,48.83671783466264,2.283664085650799,2021-05-29 11:49:14
963786819,Jonquoy - Didot,0,1,30,48.82890454823947,2.31648076325655,2021-05-29 11:42:34
427678168,Lucien Sampaix - Récollets,5,8,33,48.874330377560476,2.3621229082345963,2021-05-29 11:51:24
976762284,Place du Général de Gaulle,10,2,16,48.8525288,2.4877332,2021-05-29 11:48:56
129091653,Gare de Pont-Cardinet,0,3,30,48.88713901475306,2.314494143994255,2021-05-29 11:48:53
27414601,Saint-François-Xavier,16,16,10,48.851544847689894,2.3146149516105656,2021-05-29 11:51:14
252339799,Edouard Vaillant - Paul-Adolphe Souriau,12,0,14,48.83484585882868,2.2479459643363957,2021-05-29 11:50:57
224589573,Michelet - Assas,1,2,14,48.84274150283194,2.335021197795868,2021-05-29 11:49:41
220502135,Porte Dorée,27,3,6,48.8354337,2.4077132,2021-05-29 11:51:27
1805401614,Sèvres-Gallieni,11,5,11,48.83780940895712,2.2281519323587418,2021-05-29 11:49:45
129114993,Belleville - Porte des Lilas,0,6,26,48.87660391892763,2.404769691129476,2021-05-29 11:51:13
129124069,Haxo - Surmelin,12,0,9,48.8694370761222,2.40539657537972,2021-05-29 11:41:47
221041655,Porte de Clignancourt,5,1,50,48.897488,2.343996,2021-05-29 11:51:00
129061615,Primo Levi - Frigos,5,2,28,48.83094844846017,2.37965351592796,2021-05-29 11:50:10
221094844,Place Alphonse Deville,9,9,5,48.85018826266191,2.3275961726903915,2021-05-29 11:49:34
220726050,Mézières - Rennes ,15,3,37,48.85023459321703,2.3303819820284843,2021-05-29 11:50:58
254224239,Place Adolphe Cherioux - Vaugirard,6,3,54,48.83959442800459,2.3010657727718353,2021-05-29 11:51:05
252301607,Charles de Gaulle - Madrid,1,9,12,48.884432270367995,2.2608044743537907,2021-05-29 11:50:37
129116697,Tanger - Place du Maroc,2,1,16,48.8862524447104,2.3689296841621403,2021-05-29 11:51:01
977409509,Vincennes - Douy-Delcupe,2,1,35,48.85493692155721,2.436049282550812,2021-05-29 11:50:28
653055049,Place du Cornillon - Stade de France,3,2,28,48.92540695835961,2.3644426837563515,2021-05-29 11:51:20
1057769632,Porte de Saint-Ouen - Henri Huchard,3,2,21,48.898708366365064,2.3295360803604126,2021-05-29 11:46:39
1333959209,Génie - Mozart,3,7,9,48.794902381218904,2.3734183609485626,2021-05-29 11:51:15
213690256,Place du Maréchal Juin - Péreire,6,3,37,48.885263,2.298286,2021-05-29 11:50:20
476183970,Gare de l'Est - Place du 11 Novembre 1918,7,13,21,48.876327,2.3585464,2021-05-29 11:48:31
632007124,Lucie Aubrac - Franklin,9,8,19,48.86223916006812,2.4435862898826604,2021-05-29 11:48:54
977206088,Hôtel de Ville d'Argenteuil,9,6,16,48.946504,2.2496396,2021-05-29 11:51:21
213868408,Gare Routière de Saint Cloud,7,5,18,48.84288183896324,2.222245037555695,2021-05-29 11:42:34
84986959,Bastille - Biscornet,34,7,21,48.851355779578945,2.369220033288002,2021-05-29 11:51:23
43165673,Belfort - Voltaire,1,1,37,48.8563358,2.3829901,2021-05-29 11:51:07
82381710,Batignolles - Rome,0,0,15,48.881823370566806,2.3202589899301524,2021-05-29 11:46:22
224598098,Dunois - Clisson,5,2,44,48.832294,2.3674523,2021-05-29 11:50:30
10968855,Colonel Monteil - Brune,1,0,18,48.8265029331101,2.30927479982717,2021-05-29 11:41:39
82508970,Verdun - Adrien Damalix,1,7,18,48.8222334178559,2.4215328320860863,2021-05-29 11:50:50
653055097,Milton - Manuel,0,1,21,48.878249,2.341181,2021-05-29 11:50:57
221038698,Mahatma Gandhi,4,5,17,48.876356,2.264205,2021-05-29 11:50:35
27246227,Edouard Pailleron - Simon Bolivar ,9,2,13,48.87979886049996,2.374839261174202,2021-05-29 11:50:15
63297,Eglise d'Auteuil,2,0,19,48.84749841771691,2.26848387135299,2021-05-29 11:51:22
213692714,Lepic - Armée d'Orient,2,1,20,48.88753640381415,2.334307730197907,2021-05-29 11:47:01
95927849,Jean Jaurès - Jean Baptiste Clément ,12,3,8,48.84576261454011,2.2369650006294255,2021-05-29 11:51:19
102341385,Château - Bineau,1,0,22,48.890404028589806,2.270106375217438,2021-05-29 11:41:54
27415327,Courcelles - Pierre Demours,11,1,14,48.883769733273496,2.29858466343129,2021-05-29 11:45:20
54000605,Mairie du 18ème,1,2,37,48.892939296937605,2.3445510864257812,2021-05-29 11:51:21
979059925,Bridaine - Lamandé,2,2,25,48.8862074,2.3206239,2021-05-29 11:50:00
6512,Porte de Ménilmontant,0,0,15,48.8691543609174,2.40932246879487,2021-05-29 11:51:12
27363323,Laffitte - Italiens,0,3,30,48.871815737396304,2.337201547845077,2021-05-29 11:50:14
85118872,Indre - Prairies,1,1,35,48.86254398506782,2.403290458023548,2021-05-29 11:42:39
253357936,Félix Faure - Lourmel,19,4,35,48.83868901709515,2.2818081825971603,2021-05-29 11:44:56
102289046,Lourmel - Marie Skobtsov,2,1,19,48.844974,2.287283,2021-05-29 11:46:41
124402232,Belleville - Télégraphe,0,0,41,48.8756045,2.3995549,2021-05-29 11:42:33
985086307,Gare d'Asnières sur Seine,12,8,3,48.90636459217474,2.2835066914558415,2021-05-29 11:50:42
984663789,Faubourg St-Antoine - Place de la Nation,3,2,32,48.8487659,2.3940436,2021-05-29 11:47:52
100798076,Danton - Serpente,15,3,4,48.85229736258167,2.3414132371544834,2021-05-29 11:47:09
15298647,Temple - Jean-Pierre Timbaud,24,1,10,48.864465972010244,2.3660597205162053,2021-05-29 11:51:03
1063404053,République - Danton,0,6,14,48.85249172181667,2.462034523487091,2021-05-29 11:51:10
82577019,Cité des Sciences et de l'Industrie,1,4,25,48.89659571178903,2.384599149227142,2021-05-29 11:50:39
76199110,Université Paris Dauphine,0,0,0,48.870707839985386,2.2748656198382378,2021-02-11 10:14:41
54000598,Mac-Mahon - Brey,6,3,16,48.877532084130166,2.294512536052928,2021-05-29 11:48:17
2515829865,Basilique,4,3,14,48.93626891059109,2.3588666820200914,2021-05-29 11:44:28
989753852,Square des Epinettes,9,1,10,48.89383909781389,2.325953990221024,2021-05-29 11:51:06
990000217,Les Planètes ,13,2,1,48.8099849920804,2.4580853059887886,2021-05-29 11:50:23
121025345,Chabrol - d'Hauteville,0,0,11,48.87701838803332,2.3513179644942284,2021-05-29 11:51:00
39256416,Pajol - Riquet ,6,1,40,48.88960028134536,2.3628534749150276,2021-05-29 11:48:54
255207155,Lassus - Delouvain,0,0,20,48.87550448459959,2.3890327325518528,2021-05-29 11:44:37
63769334,Emile Blemont - Poteau,0,5,34,48.8943782,2.3415122,2021-05-29 11:51:25
129136818,Square du Carrefour de l'Insurrection,0,5,18,48.820864559770676,2.291113436222077,2021-05-29 11:51:02
98132679, Jean Bleuzen - Square du 11 Novembre,1,2,44,48.8232579,2.2965213,2021-05-29 11:50:10
27415469,Orteaux - Mouraud,2,0,22,48.85558642847872,2.408762907764669,2021-05-29 11:51:19
39599631,François Ponsard - La Muette ,3,1,19,48.8583666,2.2744515,2021-05-29 11:50:54
84979504,Provence - Chaussée d'Antin,11,13,1,48.87428447542072,2.332976511564311,2021-05-29 11:49:17
82404497,Ledru-Rollin - Place du Père Chaillet,20,0,18,48.856433706943704,2.379020587761426,2021-05-29 11:51:05
37936869,Assas - Vaugirard,5,3,27,48.848274111397586,2.3292413726449013,2021-05-29 11:51:07
85120104,Pelleport - Belgrand,5,4,6,48.86500081847653,2.403980836377493,2021-05-29 11:44:35
54000604,Ordener - Poissonniers,2,1,32,48.891213890844654,2.351288666219873,2021-05-29 11:48:15
101748685,Place Etienne Pernet,28,0,15,48.84243457133779,2.2921819612383847,2021-05-29 11:50:43
3230175424,Place de la République,0,4,24,48.852988,2.42467,2021-05-29 11:49:55
54000608,Porte d'Aubervilliers,3,3,50,48.89859661942376,2.3689722642302513,2021-05-29 11:46:52
653080986,Toffier Decaux - Cartier Bresson,5,2,8,48.90165072551549,2.4017545580863957,2021-05-29 11:50:50
102743096,Sadi Carnot - François Mitterrand ,0,1,26,48.87532687671517,2.4241617321968083,2021-05-29 11:42:28
653059015,Bellefond - Maubeuge,1,2,28,48.878255397644715,2.345264218747616,2021-05-29 11:49:59
126175087,Gabrielle Josserand - Edouard Vaillant,3,1,21,48.90271566255436,2.3933270573616032,2021-05-29 11:51:19
101746493,Théâtre - Lourmel,17,5,31,48.8482070397636,2.2898658737540245,2021-05-29 11:48:49
27363137,Hameau Fleuri - Marché,15,5,2,48.831448892608314,2.2412404417991643,2021-05-29 11:49:42
339797666,Charles de Gaulle - Jean Lolive,6,0,20,48.8932644350857,2.4126765131950383,2021-05-29 11:50:23
1968156458,Ecole Vétérinaire,30,4,2,48.81488859822486,2.4224362157778994,2021-05-29 11:51:01
255212362,Porte de Versailles,18,3,3,48.83215381734912,2.2871491312980647,2021-05-29 11:50:58
66491394,Square Saint-Ambroise,22,2,18,48.860934,2.375841,2021-05-29 11:51:06
991351798,Aubervilliers - Curial,4,2,17,48.89088305227546,2.3688579350709915,2021-05-29 11:50:20
7304,Bassano -  Iéna,2,0,13,48.868144510482075,2.296149600985935,2021-05-29 11:46:43
54000592,Balard - Montagne de la Fage,21,5,10,48.83850740333351,2.2782871127128606,2021-05-29 11:49:43
54000572,Diderot - Pierre Bourdan,19,0,2,48.84764862079675,2.3902582749724393,2021-05-29 11:50:46
624177860,Route de la Muette - Porte de Neuilly,7,2,40,48.8798926,2.2587671,2021-05-29 11:46:42
15409531,Méchain - Faubourg Saint-Jacques,0,2,14,48.83586772099485,2.33798034198275,2021-05-29 11:46:05
29327,Stade Auguste Delaune,11,3,7,48.80896378683884,2.4345204234123234,2021-05-29 11:50:21
125469898,Square Léon,3,4,26,48.88667396788626,2.353205569088459,2021-05-29 11:50:53
36298,Jean-Baptiste Pigalle - La Bruyere,1,1,15,48.87939826447722,2.333709173337285,2021-05-29 11:46:15
37903195,Transvaal - Charles de Gaulle ,20,0,7,48.848280403628806,2.2373420120857195,2021-05-29 11:50:25
102313219,Belliard - Damrémont,1,3,30,48.89669238777841,2.338023450388167,2021-05-29 11:51:16
100906707,Boulets - Faubourg Saint-Antoine,3,2,38,48.84925926211519,2.391754614194301,2021-05-29 11:46:40
15387809,Mozart - Jasmin,2,1,59,48.85286124871689,2.268483570651513,2021-05-29 11:49:14
66491407,Haies - Réunion,0,1,21,48.85386896766491,2.402426162238911,2021-05-29 11:49:07
27369223,Maine - Antoine Bourdelle,9,7,1,48.84308531746595,2.320263946784738,2021-05-29 11:50:47
102336814,Kléber - Gouverneur Général Eboué,13,0,6,48.826885843069796,2.2723413258790965,2021-05-29 11:49:45
484423835,Président Wilson - Jean Jaures,17,4,6,48.89034054052266,2.2920683026313786,2021-05-29 11:50:58
54000618,Pyrénées - Maraîchers,1,0,18,48.85714001395299,2.4043509364128113,2021-05-29 11:49:32
653059879,Gare RER de Saint-Denis,8,12,19,48.93554324248177,2.3471488058567047,2021-05-29 11:50:43
210583589,Place Jacques Bonsergent,7,6,20,48.870948218595146,2.3612049221992497,2021-05-29 11:51:16
653050378,Square René Viviani - Montebello,7,7,20,48.851904891406384,2.347842156887055,2021-05-29 11:50:20
84966359,Naples - Rome,0,3,23,48.879960700846226,2.321358695626259,2021-05-29 11:50:54
15291968,Place de Passy,1,1,13,48.85780291711202,2.277500546942199,2021-05-29 11:50:39
1002059045,Pont Neuf - Rivoli,17,6,4,48.86008989261731,2.344057559967041,2021-05-29 11:50:45
1002738770,Lavandieres Sainte Opportune - Rivoli,15,4,8,48.85927970247607,2.3466217517852783,2021-05-29 11:51:17
100863462,Musée d'Orsay,34,12,19,48.85972615790874,2.325860448181629,2021-05-29 11:51:24
126354477,Clichy - Place Blanche,1,6,11,48.883601088297006,2.333223782479763,2021-05-29 11:49:50
100918666,Place Pasdeloup,9,2,10,48.86265421563133,2.3670325062844237,2021-05-29 11:51:23
213987795,Wilson - Landy,2,2,36,48.91516726221354,2.357633225619793,2021-05-29 11:51:18
15397468,Maison de Radio - France,26,4,16,48.85132886434057,2.277785539627075,2021-05-29 11:49:51
129101773,Caulaincourt - Place Constantin Pecqueur,0,6,38,48.8896779050281,2.33817871442611,2021-05-29 11:51:27
42908639,Lallier - Trudaine ,2,2,25,48.88109246617963,2.3408224806189537,2021-05-29 11:51:27
6298,Gare du Nord - Saint-Vincent de Paul,2,1,21,48.88095574164779,2.352430514838522,2021-05-29 11:48:41
42499285,Petit Palais,13,4,26,48.8667692,2.3157655,2021-05-29 11:51:10
213952930,Proudhon - Président Wilson,5,2,23,48.90644276349534,2.3584905266761784,2021-05-29 11:50:27
54000549,Villersexel - Saint-Germain,7,1,8,48.858297001217615,2.323793470859528,2021-05-29 11:50:31
85162552,Fontainebleau - Edmond Michelet,0,2,43,48.80956436844049,2.3626908659935,2021-05-29 11:51:16
2515738489,Eugène Reisz - Davout,3,2,15,48.85631874632638,2.410396970808506,2021-05-29 11:48:58
52329,Chernoviz - Raynouard,0,0,37,48.8569864146289,2.282173218142987,2021-05-29 11:47:54
256561528,Eugène Oudiné - Dessous Des Berges,8,5,31,48.8256423,2.3750226,2021-05-29 11:50:16
452920451,Mont Valérien - Michel Salles,1,0,23,48.8561915,2.2152966,2021-05-29 11:41:38
37920,Traversière - Ledru-Rollin,23,3,8,48.850735824128805,2.375870111706245,2021-05-29 11:51:10
54000621,Ménilmontant - Père Lachaise,1,0,55,48.86328729150227,2.3869940266013145,2021-05-29 11:50:28
1020700136,Neuve Saint-Pierre - Beautreillis,5,10,5,48.85355351439652,2.3639122769236565,2021-05-29 11:45:08
100855693,Sabot - Rennes,5,3,18,48.852575112948415,2.331552766263485,2021-05-29 11:47:09
9931940126,Diane Arbus,1,2,35,48.898800717199,2.3524022474884987,2021-05-29 11:50:30
54000586,Pernety - Raymond Losserand,0,2,30,48.83425462795304,2.317609339386963,2021-05-29 11:51:14
102304517,Pereire - Place de Wagram,5,1,38,48.887070607581215,2.304111124531457,2021-05-29 11:49:26
128889359,Champ de Mars - Cler,19,1,21,48.856691550115315,2.306646779179573,2021-05-29 11:51:24
54000546,Sénat - Condé,12,0,21,48.84954227788459,2.337939441204071,2021-05-29 11:50:21
129042700,Granges aux Belles - Hôpital Saint-Louis,13,1,46,48.874794994841274,2.366669436984963,2021-05-29 11:50:32
101761298,Place du Moulin de Javel,6,7,32,48.84021670922037,2.2716060653328896,2021-05-29 11:47:33
27364581,Parc de Choisy,2,3,20,48.828156251574946,2.358513532903332,2021-05-29 11:49:23
210737808,Aqueduc - Villette,2,4,21,48.883886063895396,2.36719880331497,2021-05-29 11:49:46
256124192,Belleville - Pyrénées,1,2,39,48.8741908,2.3860039,2021-05-29 11:50:47
54000588,Gare Montparnasse - Vaugirard,0,0,66,48.8418071798797,2.31951002690117,2021-05-29 11:47:50
653127524,Gustave Eiffel - Parc des Impressionnistes,12,5,13,48.90390619651018,2.2946908324956894,2021-05-29 11:50:45
2515686699,Borrégo - Gambetta,0,1,24,48.87330497045532,2.4014145880937576,2021-05-29 11:47:27
912377361,Diderot - Reuilly,31,3,10,48.84720845606067,2.3861273378133774,2021-05-29 11:50:46
35137730,Hôpital Pitié Salpêtrière,3,3,44,48.8377016,2.3604946,2021-05-29 11:46:36
259977414,Palais des Sports,20,1,1,48.83346851742578,2.2858720645308495,2021-05-29 11:50:34
88235134,Alésia - Suisses,3,1,43,48.831682520717614,2.3149869226003754,2021-05-29 11:49:01
66491408,Calmette,1,1,30,48.88104925098552,2.424993216991425,2021-05-29 11:50:15
1021176825,Billancourt - Général Leclerc ,7,4,11,48.8322649,2.2380413,2021-05-29 11:51:26
54000611,Manin - Simon Bolivar,1,1,24,48.87649965412676,2.379407362599104,2021-05-29 11:51:24
1396728955,Bastille - Beaumarchais,3,2,17,48.85383346385182,2.3685702681541443,2021-05-29 11:50:42
224256188,Beaujon - Wagram,3,2,24,48.87535245598514,2.2964416444301605,2021-05-29 11:44:05
36151,Favart - Italiens,1,5,11,48.87144635392104,2.338290105850787,2021-05-29 11:50:14
213848056,Parvis Corentin Celton,41,2,11,48.82747252522725,2.2784319519996648,2021-05-29 11:49:57
54000545,Parc André Citroën,4,2,59,48.840639944296655,2.2780618071556096,2021-05-29 11:49:33
66505511,François 1er - Montaigne,10,4,15,48.866887649978096,2.306675575720671,2021-05-29 11:51:19
120827885,Messine - Place Du Pérou,2,1,9,48.875448033960744,2.315508019010038,2021-05-29 11:47:45
452936197,Bois de Vincennes,8,6,46,48.8338064,2.4132221,2021-05-29 11:51:24
66491386,Surcouf - Université,37,2,19,48.861273016278126,2.309453550914185,2021-05-29 11:50:18
1023083417,Ney - Charles Hermite,4,1,15,48.89874803977525,2.3645754531025887,2021-05-29 11:46:12
315525484,Berges de Seine - Musée d'Orsay,0,0,16,48.8627885936562,2.3064593598246574,2021-01-27 07:51:48
100872260,Duroc - Place de Breteuil,15,1,25,48.84746064114221,2.3126140236854558,2021-05-29 11:50:39
82568336,Jeanne Hornet - Girardot,0,1,28,48.873802681432146,2.427820265293122,2021-05-29 11:48:49
1025995767,Hôtel de Ville de Champigny sur Marne,13,4,4,48.81381062840488,2.5096759200096135,2021-05-29 11:51:24
54000466,Uzès - Montmartre,2,1,25,48.870790980240706,2.3431010171771054,2021-05-29 11:48:50
82432573,Porte d'Ivry,3,7,40,48.82176874759649,2.3688706755638127,2021-05-29 11:50:41
1021553839,Faubourg Poissonniere - Delta,0,2,33,48.882555807626765,2.3497482016682625,2021-05-29 11:50:00
54000541,Vieille du Temple - Francs Bourgeois,19,10,0,48.858256413365815,2.35821794718504,2021-05-29 11:51:11
653065577,Gare du Nord - Demarquay,3,2,25,48.881154,2.358411,2021-05-29 11:44:40
1034242363,Place François Mitterand,5,1,28,48.86492782016328,2.442958317697048,2021-05-29 11:48:31
335780498,Greneta - Sebastopol,23,6,3,48.86524233322809,2.3516669869422917,2021-05-29 11:51:25
256403519,Place Pigalle,0,6,15,48.8827555,2.3361566,2021-05-29 11:49:50
484387018,Place du Maquis du Vercors,2,2,28,48.877321579493575,2.4083782732486725,2021-05-29 11:44:45
544249939,Raspail - Chomel,24,2,22,48.852233164303094,2.3266580700874333,2021-05-29 11:50:05
1035816937,Poissonniers - Nord,2,0,25,48.892511213520656,2.3522228747606277,2021-05-29 11:51:15
101490103,Saint-Jacques - Tombe Issoire,1,5,16,48.833206330538864,2.3369108140468597,2021-05-29 11:51:22
66507229,Reims - Porte d'Asnières,1,7,17,48.891834448210986,2.300144659954865,2021-05-29 11:50:38
54000539,Hôtel de Ville - Pont-Marie,23,7,6,48.85389964552738,2.356947250664234,2021-05-29 11:51:10
27415012,Bercy,37,10,19,48.83996691499447,2.378862574696541,2021-05-29 11:47:47
263610599,Centenaire - Sorins,2,4,39,48.85853523359734,2.4273508787155156,2021-05-29 11:48:13
27415215,Romain Rolland,1,3,21,48.820215229662765,2.3234144234418346,2021-05-29 11:50:52
49772483,Damrémont - Caulaincourt,2,1,15,48.88714509078738,2.3325880989432335,2021-05-29 11:48:51
653066427,Franciade - Gabriel Péri,8,1,17,48.93261499331498,2.355954498052597,2021-05-29 11:51:22
129089749,Brochant - Square des Batignolles ,5,2,23,48.88818698581028,2.316861143151153,2021-05-29 11:49:46
100770878,Poissy - Saint-Germain,10,1,14,48.849696494270084,2.352968528866768,2021-05-29 11:51:17
27415297,Square Raymond Souplex,2,1,49,48.89183721478911,2.335426103165901,2021-05-29 11:51:03
54000607,Convention - Saint-Charles,4,0,15,48.84315611111599,2.2831090539693832,2021-05-29 11:51:19
13283986,Keller - La Roquette,11,3,20,48.8555508,2.3752778,2021-05-29 11:43:16
36003,Pont de Lodi - Dauphine ,3,1,19,48.855296898603285,2.339947307565249,2021-05-29 11:51:11
100910836,Parmentier - Fontaine au Roi,3,1,44,48.86787670551736,2.372705978671471,2021-05-29 11:51:13
6515,Rougemont - Poissonnière,15,4,11,48.871611569354755,2.345873080193996,2021-05-29 11:50:27
82587428,Gambetta - Hôpital Tenon,0,1,34,48.867925154026736,2.400976623546542,2021-05-29 11:42:09
41523981,Mairie du 15ème,1,2,29,48.8417762,2.2986539,2021-05-29 11:51:22
1034247348,Place des Larris,1,1,32,48.8568363,2.4780236,2021-05-29 11:42:21
54000558,Chateaubriand - Friedland,7,2,22,48.8740144756374,2.29991625786582,2021-05-29 11:49:14
35089539,Manin - Crimée,0,1,22,48.8831217743719,2.3863670602440834,2021-05-29 11:50:28
27415169,Nationale - Marcel Duchamp,0,4,19,48.82463749337136,2.3678014799952507,2021-05-29 11:43:38
15412563,Square Desnouettes,1,0,21,48.83476837934194,2.284142297394666,2021-05-29 11:49:31
30179848,Saint-Blaise - Mouraud,8,2,17,48.85696177597818,2.40869477391243,2021-05-29 11:48:40
27363029,Charonne - Philippe-Auguste,2,4,26,48.85560316202584,2.390546390619984,2021-05-29 11:50:37
484889494,Hôtel de Ville de Levallois Perret,2,4,19,48.89314451997415,2.2888818383216862,2021-05-29 11:48:15
27363256,Thérèse - Opéra,14,6,5,48.86648351450895,2.334433421223788,2021-05-29 11:48:53
100902274,Roquépine - Malesherbes,4,2,31,48.87345073390807,2.320404499769211,2021-05-29 11:49:04
15414455,Paul Doumer - La Tour,0,1,33,48.860116109626574,2.280840481911055,2021-05-29 11:43:57
27415285,Place de Finlande,4,4,17,48.86240833596654,2.311362437903881,2021-05-29 11:46:30
39536951,Vistule - Choisy,8,3,22,48.82365543660611,2.3615723848342896,2021-05-29 11:47:17
78348185,Mairie de Clichy,36,5,10,48.903653634660834,2.3059353232383732,2021-05-29 11:50:52
249554935,Quai Anatole France - Musée d'Orsay,0,0,12,48.86121174057001,2.3242460936307903,2021-01-22 21:01:53
263732151,Gambetta - Michelet,2,4,27,48.85273792380526,2.429966032505036,2021-05-29 11:49:30
1036199130,Les Juilliottes,12,4,5,48.8043072,2.4437362,2021-05-29 11:50:23
129161858,République - Henri Barbusse,2,2,28,48.90661553626751,2.389432489871979,2021-05-29 11:49:21
653035822,Jeûneurs - Mulhouse,1,0,27,48.868997,2.346925,2021-05-29 11:43:21
27414460,Danielle Casanova - Place Vendôme,10,3,23,48.86826649822326,2.3304839059710503,2021-05-29 11:51:27
653069115,Claude Vellefaux - Sambre et Meuse,2,0,31,48.875022,2.370478,2021-05-29 11:45:13
76488849,Fernand Braudel - Vincent Auriol ,16,0,20,48.83637852318147,2.3723404482007027,2021-05-29 11:48:19
66491368,Sorbonne - Ecoles,9,7,34,48.84968656619092,2.3434996604919434,2021-05-29 11:49:57
82419429,Faidherbe - Dahomey,24,4,15,48.851358329771806,2.383823134795429,2021-05-29 11:50:57
349750111,Bleue - Trévise,3,1,26,48.87578906564573,2.347289621829987,2021-05-29 11:50:41
52453,Le Vau - Maurice Bertaux,2,5,18,48.86803439043193,2.411030612453627,2021-05-29 11:49:23
210389577,Daunou - Louis le Grand,4,2,11,48.869113,2.332515,2021-05-29 11:51:19
15401095,Versailles - Claude Terrasse,18,3,25,48.84021933807409,2.263834191152959,2021-05-29 11:50:34
1055553396,Mornay - Sully,3,1,11,48.84970399548416,2.364460788667202,2021-05-29 11:49:52
210394523,Porte Saint-Martin,5,2,27,48.86860172112996,2.35570102930069,2021-05-29 11:45:29
1036226943,Parc de Sceaux - Centre-Ville,2,10,21,48.7769529826096,2.2957214713096623,2021-05-29 11:50:53
1056959071,Place Mireille Havet,10,3,30,48.850533,2.383756,2021-05-29 11:51:06
66491371,Pierre Sarrazin - Saint-Michel,14,4,14,48.85090814639774,2.3421307280659676,2021-05-29 11:50:44
486833337,Bachaumont - Montmartre,4,5,23,48.86617395079137,2.3449775576591496,2021-05-29 11:51:09
1055541632,Place Tony de Graaff,17,5,20,48.8181645,2.2458109,2021-05-29 11:49:58
66505513,François 1er - Lincoln,2,3,26,48.86951797934417,2.302426218841562,2021-05-29 11:42:51
606669250,Square Georges Melies,11,7,21,48.84070239213081,2.409667745232582,2021-05-29 11:49:55
82402482,Gare de l'Est - Chateau Landon,1,3,55,48.879305,2.362424,2021-05-29 11:50:48
75313725,Ferrus - Saint-Jacques,0,1,33,48.8313878,2.3408563,2021-05-29 11:51:11
15383032,Place du Canada,5,6,29,48.865346269362675,2.310193787964762,2021-05-29 11:49:46
60667075,Georges V - François 1er,3,2,17,48.87034,2.30082,2021-05-29 11:49:46
54000561,Lamartine - Faubourg Montmartre,11,5,16,48.87661398289084,2.339765690267086,2021-05-29 11:51:05
129050965,Place de la République - Voltaire,9,3,6,48.86683096894219,2.3654810339212418,2021-05-29 11:51:04
54001190,Mairie du 19ème,2,3,22,48.88256264247959,2.3812624812126164,2021-05-29 11:51:12
43219958,Odessa - Départ,23,2,13,48.842885590080826,2.3244281485676765,2021-05-29 11:51:21
82569809,Jardin Marguerite Long,3,0,19,48.8816985773914,2.2836575657129288,2021-05-29 11:41:28
82554786,Place de l'Eglise,5,2,23,48.892809461520265,2.4124351143836975,2021-05-29 11:46:33
266052390,Melun - Jean Jaurès,1,0,27,48.8837796723475,2.376477420330048,2021-05-29 11:48:11
82448637,Suffren - Pérignon,2,2,42,48.84717561492764,2.307052147596786,2021-05-29 11:51:17
37952191,Jean Jaurès - Reine,16,0,15,48.84009622558849,2.239872515201569,2021-05-29 11:47:55
34300292,Argenson - Château,3,3,19,48.888559314669514,2.2642001509666447,2021-05-29 11:51:22
54000567,Montreuil - Voltaire,3,1,30,48.85050701184191,2.393075558274471,2021-05-29 11:47:57
268976295,Butte aux Cailles - Esperance,4,2,28,48.82758774190948,2.3492151126265526,2021-05-29 11:51:28
27415444,Louis Ganne - Davout,1,0,28,48.86338720692607,2.409725748002529,2021-05-29 11:45:10
84983562,Roquette - Folie Regnault,4,4,44,48.859246959155485,2.386553623578705,2021-05-29 11:51:16
129081441,Vignes - Boulainvilliers,14,2,5,48.856399483950504,2.275240458548069,2021-05-29 11:51:25
653073004,Tremblay - Lac des Minimes,7,5,36,48.834131261494356,2.454751655459404,2021-05-29 11:50:19
1056986761,Terroirs de France - Lheureux,34,1,20,48.83212027074841,2.388618104159832,2021-05-29 11:49:48
41610121,Censier - Jardin des Plantes,11,2,15,48.84107178161383,2.355475388467312,2021-05-29 11:45:02
82566934,Brochant - Clichy,9,8,35,48.89032998912038,2.319730559929781,2021-05-29 11:49:19
128936618,Matignon - Faubourg Saint-Honoré,4,3,29,48.87147859116726,2.313977926969528,2021-05-29 11:50:13
262607058,Charles de Gaulle - Plateau de Vanves,3,12,18,48.82233088973263,2.298571803412886,2021-05-29 11:47:09
35106544,René Coty - Parc Montsouris,8,3,45,48.82479134498032,2.336124926805496,2021-05-29 11:50:56
267976590,François Truffaut - Saint Emilion,32,9,25,48.83372354344807,2.386601903271428,2021-05-29 11:48:42
1056965116,Lac Daumesnil - Saint-Maurice,12,3,35,48.82774555743318,2.4183654785156246,2021-05-29 11:50:36
54000630,Madeleine Michelis - Roule,10,7,8,48.88260431301364,2.2773634269833565,2021-05-29 11:51:16
1599921040,Jessaint - Marx Dormoy,3,1,26,48.88484543106364,2.358930408954621,2021-05-29 11:51:08
129096696,Léon - Doudeauville,0,2,10,48.88832421845225,2.353573372638597,2021-05-29 11:51:27
82590367,Place Marcel Sembat,17,2,36,48.83328865030686,2.2441747784614567,2021-05-29 11:50:24
82573931,René Binet - Porte de Montmartre,6,5,26,48.89905109950848,2.3365534096956253,2021-05-29 11:47:18
82436057,Moulin de la Pointe,4,0,18,48.82092946051445,2.3563179373741145,2021-05-29 11:42:39
269953055,Quai Marcel Boyer - Victor Hugo,9,0,20,48.82255636666729,2.392039597034455,2021-05-29 11:51:22
460558111,Square du Bataclan,8,3,9,48.8633762,2.3711327,2021-05-29 11:51:22
271540743,Gare de Clichy-Levallois ,2,3,20,48.89679827481989,2.2984680533409123,2021-05-29 11:51:07
452347778,Daumesnil - Picpus,2,2,17,48.8374688,2.401765,2021-05-29 11:47:31
13372702,Saint-Fargeau - Mortier,1,0,32,48.87266656122256,2.407912909984589,2021-05-29 11:50:47
1599931563,République - Auguste Perret,1,1,28,48.78695280952244,2.3518594354391094,2021-05-29 11:51:06
15411223,Dareau - Broussais,0,2,22,48.8307758,2.3361804,2021-05-29 11:50:22
85152599,Le Corbusier - Jean Jaurès,18,6,20,48.83780830557548,2.2408381104469304,2021-05-29 11:50:08
284711589,Beaumarchais - Pas de la Mule,10,1,6,48.855580507049055,2.368433367343057,2021-05-29 11:50:28
357491025,Place Centrale ,0,7,15,48.78740167690531,2.2278830409049992,2021-05-29 11:50:38
30550,Mairie du 9ème,9,4,11,48.87326713758289,2.340753448052758,2021-05-29 11:48:14
478593396,Jean Moulin - Paul Doumer,1,6,13,48.8622179854695,2.45533436536789,2021-05-29 11:50:28
213675430,Boutroux - Porte de Vitry,27,3,19,48.822632,2.377738,2021-05-29 11:48:38
462875227,Jules Guesde - Alsace,7,3,16,48.89056627550627,2.295077741146088,2021-05-29 11:51:19
213693126,Véron - Lepic,1,3,18,48.88526123395252,2.334559857845307,2021-05-29 11:42:34
363735875,Pont De Charenton,13,1,4,48.8179685,2.4199531,2021-05-29 11:51:16
265266148,Pierre Brossolette - Adolphe Pinard,0,2,22,48.82177227954821,2.313155829906464,2021-05-29 11:46:46
390075668,Stade Georges Carpentier,11,9,20,48.82048243838136,2.366832196712494,2021-05-29 11:50:48
457713145,Gare de Nanterre Ville,6,1,36,48.8950295,2.1957932,2021-05-29 11:50:10
392576677,Senard - Charles Blum,4,2,17,48.857315824799,2.221091687679291,2021-05-29 11:41:52
124390478,Commandant l'Herminier - Gallieni,3,1,13,48.84704055260307,2.416045367717743,2021-05-29 11:48:45
338853596,Charles de Gaulle - Orléans ,1,0,23,48.88092225101522,2.271581590175629,2021-05-29 11:48:24
1056995858,Gergovie - Vercingétorix,0,1,28,48.83453413883994,2.313154547426182,2021-05-29 11:42:20
452341449,Choisy - Tolbiac,6,3,17,48.82591155587023,2.3602393269538884,2021-05-29 11:51:23
100905057,Londres - Amsterdam,3,2,18,48.878034461503965,2.326483540969424,2021-05-29 11:50:57
66491406,Cours de Vincennes - Davout,10,16,22,48.847238029965595,2.4107042336224986,2021-05-29 11:48:01
1056972307,Pyramide - Parc Floral,20,11,19,48.837442,2.440452,2021-05-29 11:49:30
653217067,Jules Guesde - Laennec,0,4,14,48.87628983900398,2.5006942078471184,2021-05-29 11:50:56
1109534105,Demi-Lune - Aristide Briand,1,4,15,48.87626381919953,2.4562818557024,2021-05-29 11:50:09
54000550,Rapp - Place du Général Gouraud,10,0,21,48.85810288510693,2.300407290458679,2021-05-29 11:49:51
653076373,Bois de Vincennes - Porte Jaune,5,2,28,48.838751246689455,2.4605489149689674,2021-05-29 11:41:59
365181481,Guy Môquet - Saint-Ouen,4,3,46,48.892777719023975,2.3270335793495183,2021-05-29 11:50:48
52456,Pré Saint-Gervais - Lilas,0,0,28,48.87787062698808,2.39590734243393,2021-05-29 11:50:34
15310509,Choron - Martyrs,1,3,12,48.877851443502536,2.3396701365709305,2021-05-29 11:51:19
27414924,Sambre et Meuse - Villette,2,2,20,48.87440566621717,2.373807237995119,2021-05-29 11:51:17
275968458,Place du Président Salvador Allende,4,6,50,48.897307310356055,2.40079153681279,2021-05-29 11:49:11
213995665,Square Edmond Pépin,1,1,27,48.88365620689917,2.4033531546592717,2021-05-29 11:47:06
272638713,Charles de Gaulle - Louis-Philippe,3,4,21,48.88162131114395,2.2712830090406526,2021-05-29 11:45:16
128928526,Clapeyron - Moscou,4,0,10,48.88078819514121,2.324815057218075,2021-05-29 11:46:11
27415123,Boussingault - Tolbiac,4,0,24,48.82603516605852,2.342176808004326,2021-05-29 11:48:26
287096529,Paul Klee - Place Augusta Holmes,2,1,40,48.838946417408025,2.3704235663952966,2021-05-29 11:50:04
97705710,Jacquard - Ternaux ,3,1,35,48.8646605,2.373162,2021-05-29 11:49:39
13242682,Alexander Fleming - Belvédère,1,1,29,48.88179064200294,2.4030599377642674,2021-05-29 11:45:33
278576043,Honoré d'Estienne d'Ovres - Grilles,0,1,16,48.89056394743836,2.4064831843792427,2021-05-29 11:51:13
213695073,Hôpital Robert Debré,1,5,27,48.88005222200894,2.4008650346327003,2021-05-29 11:50:22
284708999,Santé - Arago,0,1,37,48.83507657562064,2.3415737262044938,2021-05-29 11:43:41
653079520,Averroès - Aimé Césaire,10,4,6,48.91405323432864,2.412636950612068,2021-05-29 11:48:07
653076393,Place du Front Populaire - George Sand,4,1,30,48.90680713698062,2.364541214992642,2021-05-29 11:44:03
7261,Athènes - Clichy,1,4,15,48.878113787876,2.32956021945824,2021-05-29 11:50:24
129069108,Paul Barruel - Vaugirard,9,3,27,48.84014918546239,2.3044332861900334,2021-05-29 11:50:04
291354793,Gare de Lyon - Van Gogh,44,5,2,48.8438397856433,2.370445024035681,2021-05-29 11:50:49
30641281,Place de la Montagne du Goulet,5,1,15,48.8443415,2.2773844,2021-05-29 11:49:44
54000593,Longchamp - Place d'Iéna,6,4,30,48.86491723343388,2.2926748171448708,2021-05-29 11:50:22
27362949,Louis Blanc - Jemmapes,6,0,24,48.879330755297346,2.368448562920093,2021-05-29 11:51:28
1057003116,Charles Lecocq - Lecourbe,6,1,23,48.84044,2.294867,2021-05-29 11:50:28
285726279,Quai de Valmy,1,2,23,48.88126951579429,2.368186041712761,2021-05-29 11:51:17
284787594,Place d'Italie - Vincent Auriol,5,4,31,48.83148187446674,2.356755029231863,2021-05-29 11:48:23
285454061,Square de la rue Pixérécourt,0,2,13,48.8736824,2.3960278,2021-05-29 11:43:07
41587607,Georges Bernanos - Port Royal,1,0,29,48.84014521347377,2.3373574018478394,2021-05-29 11:50:16
1056979685,Bastille - Quai de la Rapée,20,6,1,48.84682410855044,2.366936467587948,2021-05-29 11:51:21
653062048,Gare du Nord - Place de Valenciennes,9,13,3,48.879089,2.354235,2021-05-29 11:50:51
213685863,Parc Suzanne Lenglen,37,9,6,48.833250690537874,2.2765403240919113,2021-05-29 11:50:27
213686471,Eylau - Trocadéro,10,2,12,48.863354122370744,2.2864209115505223,2021-05-29 11:50:24
1062812659,Auguste Blanqui - Glacière,14,5,40,48.831151602964354,2.3438221961259837,2021-05-29 11:51:19
653079135,Mazagran - Pierre de Coubertin,5,1,9,48.816218640260445,2.344226874411106,2021-05-29 11:45:39
27363558,Wurtz - Tolbiac,17,3,8,48.82631195621006,2.344585955142975,2021-05-29 11:51:27
38319086,Pierre Demours - Laugier,1,8,28,48.8813072,2.294846,2021-05-29 11:50:37
409364001,Ivry - Simone Weil,1,3,15,48.823283932030755,2.3659095168113713,2021-05-29 11:50:30
653129435,Neuilly - Petit,1,2,13,48.898965361341254,2.29627937078476,2021-05-29 11:46:07
221032834,Metz - Faubourg Saint-Denis,10,1,37,48.870893,2.353521,2021-05-29 11:50:39
292871105,Botzaris - Crimée,0,1,20,48.87959698690176,2.3887913337477067,2021-05-29 11:50:41
124622630,Pelée - Alphonse Baudin,20,0,18,48.8600265,2.3710541,2021-05-29 11:49:49
210584503,Gare de l'Est - Fidélité,3,6,6,48.874575,2.356796,2021-05-29 11:51:20
95073815,Saint-Lazare - Place d'Estienne d'Orves,7,2,30,48.8768345,2.3329067,2021-05-29 11:51:13
362178041,Place Jules Ferry,6,1,21,48.812107928414775,2.325837314128876,2021-05-29 11:51:03
100783424,Censier - Santeuil,18,3,48,48.840658921385234,2.3537524044513702,2021-05-29 11:51:19
1057081237,Cimetière Communal,0,0,24,48.81769977392539,2.260931208729744,2021-05-29 11:51:15
422639331,Mairie de Neuilly sur Seine,5,3,23,48.88494728765838,2.2677031159400944,2021-05-29 11:50:54
42541542,Gare Montparnasse - Edgar Quinet,12,9,11,48.841487851078895,2.3233232282800524,2021-05-29 11:49:41
1057061349,Chancé Milly - Cimetière Communal Sud,16,2,14,48.89687189382465,2.303922325372696,2021-05-29 11:50:43
96512532,Joseph Sansboeuf - Saint Lazare,4,2,12,48.87531563065266,2.3229019716382027,2021-05-29 11:48:23
38280,Saint-Didier - Raymond Poincaré,1,2,14,48.86642312020962,2.285863497192411,2021-05-29 11:50:20
653125838,Cours de l'Ile Seguin - Parc Billancourt,4,10,15,48.82714055843935,2.234234511852265,2021-05-29 11:50:43
303563942,Hôtel de Ville - Pont d'Arcole,0,0,20,48.85587645183987,2.350892163813114,2021-01-22 23:26:39
404947652,Place Fernand Forest,17,4,12,48.849269143835926,2.2818631678819656,2021-05-29 11:49:50
129142199,Marcel Yol - Jullien,1,4,25,48.82537611802588,2.287235018058929,2021-05-29 11:43:50
129121741,Belleville - Couronnes,3,5,42,48.86883108287741,2.380986213684082,2021-05-29 11:51:20
27415524,Saint-Germain-des-Prés,11,2,1,48.85418510815204,2.330305874347687,2021-05-29 11:50:40
214109662,Hôtel de ville de Fontenay-sous-Bois,1,4,15,48.84949749106274,2.4750164151191716,2021-05-29 11:49:26
653122771,Marc Sangnier - Division Leclerc,12,1,11,48.78599652305309,2.329955510795116,2021-05-29 11:50:50
35147530,Pierre Levée - Fontaine Timbaud,2,4,17,48.86632723374305,2.3711163550615306,2021-05-29 11:51:24
476053320,Ecole Militaire - Place Joffre,2,0,24,48.852060203582795,2.301799356937409,2021-05-29 11:51:17
594942659,Gare du Nord - Denain,4,12,4,48.879595787608096,2.3544725775718693,2021-05-29 11:51:28
101756482,Convention - Vaugirard,18,10,20,48.83767682233156,2.295586926020252,2021-05-29 11:50:53
1057179405,Résistance - Hoche,0,5,24,48.864273423741956,2.435784414410591,2021-05-29 11:48:00
653135400,Paul Vaillant-Couturier - Gare RER,23,0,3,48.80108159069614,2.402097210288048,2021-05-29 11:51:23
213689228,Raffet - Montmorency,0,4,38,48.85258670812,2.2629252456151954,2021-05-29 11:50:00
129079313,Commerce - Letellier,24,4,16,48.84797660373612,2.2966245196598805,2021-05-29 11:46:57
129135654,Victor Cresson - Telles de la Poterie,25,5,1,48.82269884297945,2.2686498274963633,2021-05-29 11:50:57
653080383,Bruneseau - Quai d'Ivry,17,5,26,48.82494563758295,2.388566136360169,2021-05-29 11:51:25
54000614,Porte de Pantin - Petits Ponts,0,0,48,48.89041086237,2.3981939256191254,2019-06-06 09:56:04
1057039016,Fessart - Château,8,2,8,48.84245,2.23989,2021-05-29 11:50:43
1190800638,Ranelagh - Maison de la Radio,7,2,13,48.85293603169479,2.280449643731117,2021-05-29 11:50:58
36473,Cadet - La Fayette,2,0,11,48.87560163267239,2.343570403754711,2021-05-29 11:47:28
303102719,Brancion - Lefebvre,1,1,9,48.82900222785569,2.301431038163409,2021-05-29 11:46:23
27363277,Place Saint-Ferdinand,3,0,34,48.87815529789739,2.288518047864942,2021-05-29 11:51:10
6295,Pontoise - La Tournelle,18,2,3,48.85045800918843,2.352454275492188,2021-05-29 11:51:13
303452950,Hôtel de Ville de Fontenay-aux-Roses,0,8,26,48.790844603480856,2.2871455930319455,2021-05-29 11:50:49
54000617,Docteurs Déjérine - Pte de Montreuil,2,2,16,48.85398448133697,2.41208288897222,2021-05-29 11:47:42
1057045129,Cimetière communal,9,0,31,48.830764,2.252024,2021-05-29 11:51:23
653131074,Vanne - Général de Gaulle,5,0,20,48.815007,2.328318,2021-05-29 11:51:27
308082350,Malakoff - Place de la Porte Maillot,3,2,25,48.876733496637506,2.2834577411413193,2021-05-29 11:50:19
302725495,Gare SNCF Vanves-Malakoff,0,1,49,48.819002163836444,2.292150005103606,2021-05-29 11:49:40
653126035,Vanne - Saussaies,1,15,3,48.786404,2.338848,2021-05-29 11:49:30
210745258,Jean-Pierre Timbaud - Vaucouleurs,9,2,36,48.867937,2.377885,2021-05-29 11:50:09
457834134,André Maurois - Joseph et Marie Hackin,8,5,16,48.8778983,2.2789591,2021-05-29 11:48:47
37921892,Vinaigriers - Magenta,0,2,23,48.8731167,2.3593052,2021-05-29 11:43:52
653123610,Pierre Lefaucheux - Traversière,19,5,11,48.82435208303827,2.2417913004755974,2021-05-29 11:50:21
213691137,Carnot - Général Lanrezac,0,0,33,48.8754438707356,2.2938242935035684,2021-05-29 11:50:25
35101194,Place de l'Insurrection d'Août 1944 ,10,7,13,48.81477852751594,2.398074567317963,2021-05-29 11:50:44
54000615,Buzenval - Avron,0,3,47,48.851617204998654,2.401513597307666,2021-05-29 11:51:25
135806005,Mairie de Romainville,1,6,9,48.885109,2.435679,2021-05-29 11:50:53
311552027,Temple - Charlot,15,13,17,48.86570934379584,2.365273725072355,2021-05-29 11:51:27
653135378,Amaury Duval - Gabriel Péri,0,3,33,48.81718759671675,2.323841750621796,2021-05-29 11:49:36
82550543,Place de Barcelone - Mirabeau,46,2,7,48.84762302736417,2.2735664248466496,2021-05-29 11:48:50
402212574,Charles de Gaulle - Graviers,0,3,25,48.88315175918637,2.2648814320564274,2021-05-29 11:45:13
1057184567,Paul Signac - Aristide Briand,2,3,30,48.86950262156371,2.4502260982990265,2021-05-29 11:51:12
210751059,Hôpital - Campo-Formio,0,0,16,48.835405,2.358218,2021-05-29 11:50:16
34235349,Jean Calvin - Tournefort,2,0,25,48.84158856925782,2.348489575088024,2021-05-29 11:50:27
559980654,George V - Christophe Colomb,0,4,20,48.87046,2.30104,2021-05-29 11:48:47
1057203651,Stade de France,3,8,33,48.919141953558054,2.362065576016903,2021-05-29 11:45:59
453172172,Porte d'Italie,3,8,1,48.817161987718954,2.360236309468746,2021-05-29 11:51:01
478385490,Charles Gide - Fort de Bicêtre ,1,7,22,48.8071937956922,2.353984415531159,2021-05-29 11:47:45
102326776,Jardin de l'Hospice Debrousse,1,3,19,48.861451061938,2.405686005949974,2021-05-29 11:47:44
213706622,Vitruve - Davout,1,5,17,48.86053161154489,2.4091592812626543,2021-05-29 11:50:10
213686749,Place de la Porte de Passy,13,8,15,48.857341095470794,2.2644165538827115,2021-05-29 11:49:53
1057302263,Place Nationale - Château-des-Rentiers,2,2,14,48.829566,2.365053,2021-05-29 11:47:43
54000562,Square Alban Satragne,5,0,25,48.87534054839558,2.35588476061821,2021-05-29 11:51:09
82375611,Batignolles - Beudant,11,2,31,48.88216401466375,2.319852970540523,2021-05-29 11:46:22
27269170,Quai aux Fleurs - Pont Saint-Louis,19,2,0,48.85291595620935,2.352195717394352,2021-05-29 11:51:28
66491395,Daumesnil - Hébrard,28,9,3,48.8429,2.38474,2021-05-29 11:50:36
38192,La Motte-Picquet - Grenelle,10,6,18,48.84858321339195,2.299347817897797,2021-05-29 11:51:03
443402852,Place de Lévis,3,7,38,48.883546851533254,2.3131933808326726,2021-05-29 11:50:18
82572699,Damrémont - Ordener,2,0,28,48.893400392981874,2.336266523912805,2021-05-29 11:50:31
84958519,Arcole - Notre-Dame,12,2,17,48.85388354132773,2.3493797332048416,2021-05-29 11:47:20
1057319366,Quai de la Gare - Pont de Bercy,18,5,7,48.837307879720484,2.3740861260598494,2021-05-29 11:49:56
1062162270,Théâtre,3,1,16,48.905768309295276,2.2353921022349748,2021-05-29 11:43:47
458086607,Président Wilson - Baudin,2,5,21,48.89826887103676,2.2849336266517644,2021-05-29 11:42:19
98187918,Lobau - Hôtel de Ville,31,13,16,48.8562118,2.3532536,2021-05-29 11:50:37
7247,Charonne - Pierre Bayle,0,0,22,48.858445054261914,2.39039812238911,2021-05-29 11:47:36
653081846,Jourdan - Monticelli,4,2,24,48.822032,2.329095,2021-05-29 11:51:04
213689815,Porte d'Asnières,5,3,27,48.89035817610495,2.3036286234855656,2021-05-29 11:48:32
443198808,Gaston Tessier - Rosa Parks RER,8,1,28,48.8963765,2.3743692,2021-05-29 11:51:15
620676855,Camille Groult - Guy Môquet,13,6,3,48.787482746521306,2.3976725712418556,2021-05-29 11:46:42
1062238429,Place de l'Europe,8,5,3,48.82529858840266,2.3945679143071175,2021-05-29 11:50:16
13191324,Assas - Luxembourg,11,7,15,48.84373446877937,2.333428381875887,2021-05-29 11:49:47
101491821,Jean Moulin - Place Victor et Hélène Basch,1,1,39,48.82764910240992,2.326196730136872,2021-05-29 11:51:23
102745622,Raspail - Albert Schweitzer,15,1,12,48.81031545,2.34395871,2021-05-29 11:50:15
213999554,Jean Jaurès - Ouvrières Pivéreuses,6,2,11,48.91042343752563,2.399576604366303,2021-05-29 11:47:43
213677219,Brillat-Savarin - Küss,9,0,12,48.822203,2.350422,2021-05-29 11:50:20
6294,Marché aux fleurs,13,6,4,48.85525811539143,2.3473754525184636,2021-05-29 11:49:39
85155919,Estienne d'Orves - Henri Ginoux,1,1,29,48.815388220397274,2.320886790760933,2021-05-29 11:51:13
82562496,Benjamin Delessert - Jean Lolive,6,7,8,48.89392043619345,2.417981922626496,2021-05-29 11:50:51
369011098,Paris - Laitières,8,2,12,48.84630274151258,2.4207553267478947,2021-05-29 11:43:55
102343591,Louis Pasteur - Albert Petit,4,2,25,48.796261,2.317289,2021-05-29 11:47:29
27415150,Bobillot - Paulin Mery,1,4,18,48.829899841747384,2.3543356766748507,2021-05-29 11:51:25
82565383,Jacques Kellner - Saint-Ouen,4,1,38,48.895809485802886,2.327897409164145,2021-05-29 11:51:03
653134004,Louis Rolland - République,1,3,22,48.81710889740748,2.3193106434955717,2021-05-29 11:49:55
27415246,Javel - André Citroën,32,4,9,48.846276485475,2.2786368057131767,2021-05-29 11:51:14
389788858,Emeriau - Beaugrenelle,66,2,6,48.84791249714942,2.2843059897422795,2021-05-29 11:50:51
1056947780,Faubourg Poissonnière - Dunkerque,2,2,26,48.880883445404436,2.349934279918671,2021-05-29 11:45:02
38327,Victor Hugo - La Pompe,2,4,35,48.86795222470859,2.28146318346262,2021-05-29 11:51:02
82499609,Convention - Lourmel,12,1,23,48.84205504165568,2.2859910875558853,2021-05-29 11:48:22
100925033,Gare de Lyon - Chalon,38,1,6,48.84566619420225,2.3741452395915985,2021-05-29 11:51:04
109609241,Colmar - Victor Hugo,10,4,17,48.88652251096166,2.173960916697979,2021-05-29 11:43:51
210738704,Mazagran - Bonne Nouvelle,2,3,21,48.870047123655254,2.351124845445156,2021-05-29 11:51:07
235197110,Place de la Gare,41,4,0,48.80253358011283,2.4275037646293645,2021-05-29 11:50:54
417088374,Place Mongolfier,31,5,3,48.815160030060376,2.4592879414558415,2021-05-29 11:47:47
129145892,Paris - Désiré Préaux,5,5,38,48.85742876694898,2.4323049187660217,2021-05-29 11:51:23
439750210,Italie - Jardin Joan Miro,9,4,13,48.81990914045756,2.3592948541045193,2021-05-29 11:49:52
214097180,Paul Doumer - Stalingrad,11,4,9,48.806518992198676,2.3368880152702336,2021-05-29 11:50:39
42720305,Monceau - Malesherbes ,8,2,28,48.8795079,2.3145456,2021-05-29 11:51:19
653205656,Gare de la Garenne-Colombes,0,2,26,48.909752,2.239145,2021-05-29 11:47:19
653147618,Lucien Lanternier - Le Luth,15,7,5,48.93159430558871,2.2889783978462224,2021-05-29 11:51:06
455294759,Place Charles de Gaulle,6,0,22,48.89664310147264,2.2525700926780705,2021-05-29 11:51:04
417623119,Mairie de quartier du Plateau - Mont-Valérien,0,4,16,48.8799933,2.2072437,2021-05-29 11:43:01
54000632,Paul Vaillant-Couturier - Victor Hugo,3,1,32,48.89819702263572,2.293848017974069,2021-05-29 11:50:38
428088564,La Jarry - Place Diderot,2,3,20,48.849726940367326,2.452013790607453,2021-05-29 11:51:09
27064639,Vaugirard - Pasteur,2,4,15,48.84040868803496,2.3154367133975033,2021-05-29 11:51:26
85015750,Pergolèse - Malakoff,2,1,5,48.87521088779225,2.2842781618237495,2021-05-29 11:46:58
102722579,Voltaire - Anatole France,6,1,20,48.891999360256904,2.284262739121914,2021-05-29 11:51:24
365886904,Berthier - Place Stuart Merril,5,4,27,48.885927922355044,2.2933450341224675,2021-05-29 11:49:56
653083263,Lucien Bossoutrot - Général Martial Vallin,3,3,33,48.83695604631085,2.274107225239277,2021-05-29 11:48:00
39151458,Goutte d'or - Barbès,1,0,19,48.88512432362698,2.349696233868599,2021-05-29 11:51:17
468354634,Quai de l'Oise - Aisne,4,1,25,48.8906231,2.3833701,2021-05-29 11:51:27
379063990,Place du 14 Juillet,2,2,18,48.8192669595252,2.30119988322258,2021-05-29 11:50:46
221036108,Charonne - Bureau,9,4,34,48.854176,2.396093,2021-05-29 11:50:40
213692227,Square Louise Michel,2,2,32,48.88468735450907,2.3441386967897415,2021-05-29 11:44:50
75641607,Blaise-Desgoffe - Vaugirard,5,5,22,48.84612887774711,2.324267216026783,2021-05-29 11:50:06
653137566,Mairie de Clamart,2,8,23,48.800612,2.262151,2021-05-29 11:51:14
335989765,Rond-Point de la Chapelle,2,0,46,48.895126609314104,2.359971106052399,2021-05-29 11:49:00
213682190,Place Jacques et Thérèse Tréfouël,0,0,43,48.842726498316644,2.3125657439231877,2021-02-09 18:39:08
213674686,Place Jeanne d'Arc,1,1,34,48.829575,2.369126,2021-05-29 11:50:01
15212034,Gérando - Rochechouart,0,0,21,48.88294340844958,2.346484623849392,2021-05-29 11:46:48
38522,Douai - Pierre Fontaine,0,3,22,48.88229101148092,2.33324121683836,2021-05-29 11:51:21
488889101,Bessières - Porte de Clichy,7,7,19,48.89611762451474,2.31790903955698,2021-05-29 11:50:05
653083675,Maréchal Joffre - Verdun,0,13,7,48.85385,2.470307,2021-05-29 11:48:31
266422568,Place Edmond Michelet,11,7,5,48.860134890541865,2.350063696503639,2021-05-29 11:51:11
488872892,Emile Zola - Fondary,22,2,18,48.847051143113745,2.2953405976295476,2021-05-29 11:50:41
129016495,Taitbout - La Fayette,4,7,42,48.87332988919973,2.3352625966072087,2021-05-29 11:51:08
488800137,Portugais - Kléber,1,0,25,48.8712148,2.2937349,2021-05-29 11:43:03
131094294,Charles Tillon - Cimetière Communal,13,1,17,48.91844023641836,2.3935630917549138,2021-05-29 11:50:36
1057335613,Quai du Président Roosevelt - Pont Aval,15,3,12,48.8343883676388,2.2656820714473724,2021-05-29 11:50:43
491687415,Delizy - Louis Nadot,1,5,17,48.896212845581346,2.4094578623771667,2021-05-29 11:42:41
82455731,Cambronne - Villa Croix Nivert,9,2,51,48.84584756136587,2.3017574474215508,2021-05-29 11:50:15
1057730786,Halles - Bourdonnais,15,5,0,48.86044899257468,2.3460162431001663,2021-05-29 11:49:11
653141822,Île de la Jatte,1,3,19,48.894036161302104,2.2666339203715324,2021-05-29 11:50:29
488980540,Saint-Mandé - Fabre d'Eglantine,4,4,26,48.8453579,2.3965022,2021-05-29 11:51:18
54000599,Lemercier - Cardinet,6,4,14,48.890097168851746,2.317377626895905,2021-05-29 11:50:12
1057221951,Balzac - Olympes de Gouges,8,4,15,48.77850332486751,2.4006786569952965,2021-05-29 11:42:51
653137567,Place Saint-Just,6,14,2,48.790379518724265,2.3895226791501045,2021-05-29 11:48:31
54000600,Toqueville - Cardinet,1,0,32,48.88490187110713,2.3109393194317818,2021-05-29 11:42:53
39202840,Rochechouart - Martyrs,2,4,14,48.88219377957169,2.3405495658516884,2021-05-29 11:50:47
494183852,La Motte-Picquet - La Tour Maubourg,20,3,17,48.8572316,2.3094136,2021-05-29 11:49:52
1057399900,Placette Grégoire Collas,8,4,13,48.94342014002797,2.2487476095557213,2021-05-29 11:50:34
210395439,Centre Georges Pompidou,17,3,6,48.861419,2.352581,2021-05-29 11:51:27
559595472,Suffren - Champ de Mars,15,2,5,48.8547194,2.2952168,2021-05-29 11:47:13
491932748,Porte des Lilas - Faidherbe,1,2,36,48.87861855668978,2.4120327830314636,2021-05-29 11:50:30
1057329581,Square Bela Bartok,12,6,6,48.85120156830401,2.2846536710858345,2021-05-29 11:51:19
1057378487,Fort d'Aubervilliers,1,8,12,48.91502382370325,2.4035281687974925,2021-05-29 11:51:08
82336035,Saint-Germain - Ciseaux,8,4,6,48.85330527759475,2.334465461882703,2021-05-29 11:50:22
100923502,Crozatier - Faubourg Saint-Antoine,24,3,2,48.8504400134045,2.37890136621104,2021-05-29 11:51:17
1314450240,Gare du Stade,1,5,14,48.9312676,2.2603778,2021-05-29 11:51:15
2515636592,Mstislav Rostropovitch - Berthier,2,2,13,48.892120821173975,2.309234105050564,2021-05-29 11:42:50
210582231,Londres - Place d'Estienne d'Orves,13,1,11,48.876693805756986,2.3305362090468407,2021-05-29 11:49:22
1057737444,Place Ginette Hamelin,28,15,6,48.837853,2.382064,2021-05-29 11:50:29
653139063,Pont de Suresnes,36,9,7,48.8674150923217,2.225894667961703,2021-05-29 11:50:42
1057091571,Esplanade du Foncet - Camille Desmoulins,13,2,13,48.827090233494964,2.2606857866048813,2021-05-29 11:50:59
255322397,Auguste Blanqui - Corvisart,1,1,24,48.8300989,2.3502726,2021-05-29 11:46:10
653087180,Clichy - Douai,3,9,20,48.88411831886975,2.3287287354469304,2021-05-29 11:49:06
312870435,Dunkerque - Trudaine,1,2,13,48.88215166773376,2.3463253676891327,2021-05-29 11:50:19
129059516,Picpus - Louis Braille,11,1,32,48.839988788911874,2.400525668552064,2021-05-29 11:50:20
1057354004,Chemin de Bretagne,15,2,12,48.825147,2.25936,2021-05-29 11:48:52
129106450,Joseph Dijon - Ornano,5,4,28,48.89374453351521,2.3476678133010864,2021-05-29 11:50:43
1057405802,Place Nelson Mandela,0,1,29,48.897874318180556,2.2182820737361912,2021-05-29 11:44:47
653085678,Berthier - Porte de Clichy,0,0,0,48.89430232362258,2.3125627956296584,2019-02-14 10:23:11
213894629,Square Denise Buisson,6,1,38,48.8562322730982,2.426436245441437,2021-05-29 11:51:05
1227051850,Glacière - Soeur Catherine Marie,14,5,21,48.829522989420596,2.343570403754711,2021-05-29 11:51:18
27414544,Place Monge,4,1,15,48.842761803051346,2.3524079471826553,2021-05-29 11:42:10
1237624420,Maurice d'Ocagne - General Maudhuy,4,2,24,48.82414282524159,2.3158789426088333,2021-05-29 11:51:21
1057748427,Rottembourg - Général Michel Bizot,4,2,37,48.83787825992554,2.4044052511453633,2021-05-29 11:44:51
285001735,Vivienne - Montmartre,3,6,30,48.8713475973833,2.341458834707737,2021-05-29 11:49:59
54000560,Geoffroy - Marie,8,3,9,48.873781940593325,2.344513876337893,2021-05-29 11:50:41
101017160,Place de Rungis,5,1,26,48.82245594764965,2.347382729482953,2021-05-29 11:50:50
100933541,Vivaldi - Antoine-Julien Hénard,7,2,18,48.841923663276546,2.389728979467376,2021-05-29 11:50:23
36391,Godot de Mauroy - Madeleine,10,3,9,48.869789,2.326347,2021-05-29 11:50:56
100934967,Madagascar - Meuniers,13,0,20,48.83460464474706,2.3970650508999825,2021-05-29 11:46:33
76121343,Abbé Groult - Convention,0,3,9,48.83596927866069,2.302064039509349,2021-05-29 11:51:27
437741660,Saint-Denis - Rivoli,17,8,18,48.85905934084166,2.3476943001151085,2021-05-29 11:51:14
1062783107,Buffon - Jardin des Plantes,11,4,15,48.842668466104875,2.3618587106466293,2021-05-29 11:51:22
653086121,Louis Xavier de Ricard - Ancienne Mairie,3,4,27,48.84629899065091,2.472420372068882,2021-05-29 11:51:14
653139897,Lebrun - Colonel Fabien ,3,0,25,48.78266870733145,2.381317801773548,2021-05-29 11:50:12
476155906,Saint-Antoine Sévigné,20,4,2,48.8550222,2.3612322,2021-05-29 11:51:13
1062742831,Place Joffre - Frédéric le Play,10,2,26,48.85375448693786,2.3044242337346077,2021-05-29 11:49:28
27415547,Square Etienne Jarousse,3,5,16,48.82485182597129,2.2925933450460434,2021-05-29 11:50:31
54000543,Cloître Saint-Merri - Renard,11,3,18,48.85883544889818,2.351827919483185,2021-05-29 11:50:17
1015246367,Champs-Elysees - Bassano,0,0,25,48.87181180781605,2.3002389818429947,2021-02-21 20:09:18
1057765913,Hôpital Necker,23,1,16,48.846043490118454,2.313245013356209,2021-05-29 11:49:32
1062704564,Bourg l'Abbé - Saint-Martin,22,6,14,48.86393331949257,2.352406270802021,2021-05-29 11:49:19
221043930,Bagnolet - Orteaux,3,6,27,48.85708641027236,2.3984125256538396,2021-05-29 11:51:10
1057234527,Gare d'Argenteuil,1,3,36,48.947022436806705,2.256898172199726,2021-05-29 11:44:54
49498164,Mairie du 8ème ,3,2,9,48.877932,2.318264,2021-05-29 11:48:04
1057072168,Jules Guesdes - Général de Gaulle,4,2,18,48.81930581291959,2.278934195637703,2021-05-29 11:49:57
15309045,Marché Saint-Quentin,1,2,12,48.877356057652264,2.354511445637388,2021-05-29 11:48:41
1062685145,Bibliothèque Nationale,0,3,14,48.868288993514916,2.338089309632778,2021-05-29 11:47:59
1056715831,Marché Saint-Germain,11,4,5,48.85165625855281,2.335500307381153,2021-05-29 11:50:43
101742129,Cherche-Midi - Hôpital Necker,7,2,29,48.84461063309956,2.317914068698883,2021-05-29 11:50:18
101011685,Charenton - Prague,9,5,12,48.848175129981016,2.376358449431232,2021-05-29 11:48:50
1057360420,Place Aimé Césaire,0,1,26,48.783194713067815,2.2429127991199493,2021-05-29 11:50:03
49117995,Condorcet - Turgot,0,0,20,48.87985155789093,2.345232367515564,2021-05-29 11:48:09
214119792,Gare RER - Malleret-Joinville,6,7,7,48.802936,2.42531,2021-05-29 11:50:12
37504995,Jean Monnet - Iles,13,1,18,48.823393984057304,2.2497073194874866,2021-05-29 11:50:26
131908132,Parc Eli Lotar,1,2,19,48.91844993053703,2.3727085813879967,2021-05-29 11:50:21
102307005,Villiers - Batignolles,0,1,22,48.88125253846116,2.31653843075037,2021-05-29 11:46:34
125811629,Leredde - Tolbiac,8,2,34,48.828876296639876,2.374438270926476,2021-05-29 11:51:28
39149651,Richard Lenoir - Place de la Bastille,41,10,1,48.8538327,2.3697222,2021-05-29 11:50:49
1057753858,Place Charles Michels,25,4,8,48.846401,2.28502,2021-05-29 11:50:50
42907187,Richard Lenoir - Voltaire,14,2,8,48.86164273877979,2.3727491497993474,2021-05-29 11:49:08
54000590,Croix Nivert - Square Saint-Lambert,8,1,38,48.8430515215905,2.295200452208519,2021-05-29 11:48:01
54000587,Mairie du 14ème,2,1,29,48.83254578122993,2.325492314994335,2021-05-29 11:50:54
27359295,Benoît Frachon - République,15,2,13,48.85230729014318,2.415605485439301,2021-05-29 11:50:52
82468690,Dutot - Place Alleray,3,1,52,48.83682609176588,2.307170109557766,2021-05-29 11:49:39
81212212,Jean Jaurès - Jules Jacquemin,1,0,23,48.88433053604843,2.4082902455152104,2021-05-29 11:49:42
653087914,Marne - Charles de Gaulle,7,2,18,48.815071719544434,2.4121668934822087,2021-05-29 11:43:06
41219552,Saint-Benoît - Jacob,14,4,6,48.85545136013941,2.3334722220897675,2021-05-29 11:51:10
43247025,Jardins d'Eole,0,2,18,48.8869703,2.3668488,2021-05-29 11:49:42
101738550,Didot - Place de Moro-Giafferi,0,1,21,48.8337,2.3215,2021-05-29 11:50:47
54000622,Davout - Volga,3,3,22,48.852919679957296,2.410522909779111,2021-05-29 11:47:02
82339935,Porte de la Muette,7,3,26,48.86302317841182,2.2687188170157406,2021-05-29 11:45:47
27414713,Landy - Heurtault,2,1,28,48.915096534520316,2.375951372087002,2021-05-29 11:48:52
54000564,Paradis - Hauteville,19,4,8,48.874999954666755,2.3522757401923404,2021-05-29 11:50:47
13912564,Bruant - Vincent Auriol,3,0,22,48.83484845292942,2.366826499627087,2021-05-29 11:49:55
1057366813,Hôtel de Ville,12,5,15,48.824363561288756,2.2131047397851944,2021-05-29 11:49:42
58311330,Place des Droits de l'Enfant,0,0,24,48.8274804,2.3319217,2021-05-29 11:41:50
100967498,Stalingrad - Rigollots,5,0,15,48.84997403844251,2.45557576417923,2021-05-29 11:50:12
27363337,Bréguet - Sabin,8,1,24,48.856931678257446,2.3706749462105408,2021-05-29 11:50:34
37879071,Paul Bodin - Clichy,8,1,25,48.89239614618928,2.317142598330975,2021-05-29 11:49:30
70903158,Raymond Poincaré - Place Victor Hugo,1,5,17,48.870306124369975,2.285074541420228,2021-05-29 11:51:11
41464928,Sèvres - Lecourbe,39,4,19,48.8447677,2.3110086,2021-05-29 11:50:54
54000619,Porte de Bagnolet,2,2,29,48.864707139122984,2.408344637349607,2021-05-29 11:47:42
43247738,Ruisseau - Ordener,2,1,32,48.89299462568024,2.340144887566567,2021-05-29 11:49:52
82332239,Ecoles - Carmes,7,3,26,48.848904447989405,2.3473486304283147,2021-05-29 11:47:28
75525462,Plantes - Moulin Vert,0,2,43,48.83005755305626,2.3232302069664006,2021-05-29 11:51:11
15462861,Crevaux - Bugeaud,3,1,27,48.870809428669546,2.281149007691853,2021-05-29 11:49:41
38407,Flandrin - Longchamp,9,1,32,48.86877849178477,2.274354539176829,2021-05-29 11:46:30
82554449,Porte Molitor,24,10,26,48.84524763511433,2.2569015249609947,2021-05-29 11:51:27
39535340,Charles Frérot - Albert Guilpin,19,2,9,48.8155839183714,2.3505029082298283,2021-05-29 11:49:41
54000555,Jean Mermoz - Champs-Elysées,5,11,17,48.86968985685174,2.310732454061508,2021-05-29 11:51:19
653089942,Poissonniers - Championnet,7,2,17,48.89543299733937,2.3530178144574165,2021-05-29 11:49:49
101008598,Reuilly - Place Felix Eboue,3,3,36,48.84030274499962,2.394630398715453,2021-05-29 11:51:19
1057373549,Gare RER les Grésillons,11,9,2,48.919898633572764,2.31458459136273,2021-05-29 11:51:11
66491388,Alfred de Vigny - Place du Général Brocard,1,2,30,48.87836138361425,2.305254448220567,2021-05-29 11:51:15
128841079,Cambon - Rivoli,21,14,5,48.866143390992,2.3251800647136633,2021-05-29 11:51:27
220504949,Grande Truanderie - Saint-Denis,22,9,2,48.8626302,2.3498075,2021-05-29 11:51:05
54000570,Place de la Nation - Picpus,9,1,26,48.84682168154762,2.400113046169281,2021-05-29 11:51:26
38060,Gare Montparnasse - Arrivée,20,9,14,48.843827994314886,2.3225811123847966,2021-05-29 11:51:27
7295,Chevreuse - Montparnasse,1,0,13,48.841739161230905,2.331552216736739,2021-05-29 11:43:05
27296946,Square Claude Bernard,4,3,22,48.89876016219984,2.375325746834278,2021-05-29 11:50:37
653143563,Henri Ravera - Gabriel Péri,3,3,24,48.79722273833844,2.302115857601166,2021-05-29 11:49:34
443153677,Perle - Vieille du Temple,26,9,1,48.8601346,2.3611206,2021-05-29 11:50:31
15308712,Jules Vallès - Charonne,6,2,15,48.85428437993525,2.384767457842827,2021-05-29 11:50:53
66505510,Epée de Bois - Mouffetard,14,1,48,48.841508690388835,2.350066713988781,2021-05-29 11:50:28
66491391,Claude Vellefaux - Hôpital Saint-Louis,1,0,31,48.87285913900304,2.370071706985146,2021-05-29 11:50:38
1062256852,Maxime Gorki - Louis Aragon,0,1,19,48.78909814728443,2.368387877941132,2021-05-29 11:40:48
1062245074,Roger Salengro - Général de Gaulle,15,10,2,48.820029010376956,2.4846760556101803,2021-05-29 11:51:18
201923447,Murat - Porte de Saint-Cloud,20,3,15,48.83750862621299,2.2577651962637906,2021-05-29 11:50:02
265201872,Bourdon - Pont Morland,34,5,13,48.8478103,2.3659356,2021-05-29 11:51:22
1062797394,Place de la Madeleine - Royale,17,9,0,48.86922805264812,2.3244211077690125,2021-05-29 11:50:50
1057758764,Cadix - Hameau,20,1,16,48.8340107632249,2.289516180753708,2021-05-29 11:51:22
653144717,Camille Risch - Paul Armangot,3,2,20,48.774703,2.373685,2021-05-29 11:48:23
42275164,Reuilly - Daumesnil,17,2,17,48.8395385,2.3972516,2021-05-29 11:50:19
85031184,Molitor - Michel-Ange,13,1,39,48.845182081538034,2.26211277356597,2021-05-29 11:51:17
97824043,Charentonneau - Maisons Alfort,15,5,0,48.809932980484355,2.443288456496946,2021-05-29 11:50:03
66491379,Place des Abbesses,1,6,5,48.884542726149725,2.3386867716908455,2021-05-29 11:51:14
39169029,Sorbier - Ménilmontant,0,0,24,48.86854239566069,2.3897721245884895,2021-05-29 11:50:52
